[{"name":"Vitry-sur-Orne","slug":"vitry-sur-orne","population":2884,"postalCode":"57185","lat":49.2761,"lng":6.0937,"department":"Moselle","departmentCode":"57","country":"FR","distanceKm":0.8},{"name":"Fameck","slug":"fameck","population":14788,"postalCode":"57290","lat":49.2978,"lng":6.1059,"department":"Moselle","departmentCode":"57","country":"FR","distanceKm":2},{"name":"Clouange","slug":"clouange","population":3824,"postalCode":"57185","lat":49.2636,"lng":6.0856,"department":"Moselle","departmentCode":"57","country":"FR","distanceKm":2.2},{"name":"Gandrange","slug":"gandrange","population":3031,"postalCode":"57175","lat":49.2723,"lng":6.1353,"department":"Moselle","departmentCode":"57","country":"FR","distanceKm":2.5},{"name":"Rosselange","slug":"rosselange","population":2384,"postalCode":"57780","lat":49.2673,"lng":6.0637,"department":"Moselle","departmentCode":"57","country":"FR","distanceKm":3.2},{"name":"Amnéville","slug":"amneville","population":10875,"postalCode":"57360","lat":49.2469,"lng":6.1179,"department":"Moselle","departmentCode":"57","country":"FR","distanceKm":3.8},{"name":"Ranguevaux","slug":"ranguevaux","population":907,"postalCode":"57700","lat":49.2935,"lng":6.0548,"department":"Moselle","departmentCode":"57","country":"FR","distanceKm":3.8},{"name":"Rombas","slug":"rombas","population":9371,"postalCode":"57120","lat":49.2442,"lng":6.0881,"department":"Moselle","departmentCode":"57","country":"FR","distanceKm":4.1},{"name":"Richemont","slug":"richemont","population":2175,"postalCode":"57270","lat":49.2831,"lng":6.1613,"department":"Moselle","departmentCode":"57","country":"FR","distanceKm":4.3},{"name":"Uckange","slug":"uckange","population":7021,"postalCode":"57270","lat":49.3069,"lng":6.1489,"department":"Moselle","departmentCode":"57","country":"FR","distanceKm":4.5},{"name":"Serémange-Erzange","slug":"seremange-erzange","population":4251,"postalCode":"57290","lat":49.3244,"lng":6.0906,"department":"Moselle","departmentCode":"57","country":"FR","distanceKm":5},{"name":"Mondelange","slug":"mondelange","population":5699,"postalCode":"57300","lat":49.2649,"lng":6.1731,"department":"Moselle","departmentCode":"57","country":"FR","distanceKm":5.4},{"name":"Florange","slug":"florange","population":12035,"postalCode":"57190","lat":49.3284,"lng":6.1233,"department":"Moselle","departmentCode":"57","country":"FR","distanceKm":5.6},{"name":"Hagondange","slug":"hagondange","population":9278,"postalCode":"57300","lat":49.242,"lng":6.161,"department":"Moselle","departmentCode":"57","country":"FR","distanceKm":6},{"name":"Moyeuvre-Grande","slug":"moyeuvre-grande","population":7311,"postalCode":"57250","lat":49.2507,"lng":6.0333,"department":"Moselle","departmentCode":"57","country":"FR","distanceKm":6},{"name":"Moyeuvre-Petite","slug":"moyeuvre-petite","population":442,"postalCode":"57250","lat":49.2776,"lng":6.0207,"department":"Moselle","departmentCode":"57","country":"FR","distanceKm":6},{"name":"Pierrevillers","slug":"pierrevillers","population":1443,"postalCode":"57120","lat":49.2254,"lng":6.0937,"department":"Moselle","departmentCode":"57","country":"FR","distanceKm":6.1},{"name":"Hayange","slug":"hayange","population":15806,"postalCode":"57700","lat":49.334,"lng":6.0641,"department":"Moselle","departmentCode":"57","country":"FR","distanceKm":6.7},{"name":"Marange-Silvange","slug":"marange-silvange","population":6539,"postalCode":"57535","lat":49.2187,"lng":6.106,"department":"Moselle","departmentCode":"57","country":"FR","distanceKm":6.8},{"name":"Talange","slug":"talange","population":8120,"postalCode":"57525","lat":49.2348,"lng":6.1684,"department":"Moselle","departmentCode":"57","country":"FR","distanceKm":6.9},{"name":"Bousse","slug":"bousse","population":3236,"postalCode":"57310","lat":49.2755,"lng":6.2052,"department":"Moselle","departmentCode":"57","country":"FR","distanceKm":7.4},{"name":"Ay-sur-Moselle","slug":"ay-sur-moselle","population":1601,"postalCode":"57300","lat":49.2471,"lng":6.1935,"department":"Moselle","departmentCode":"57","country":"FR","distanceKm":7.5},{"name":"Neufchef","slug":"neufchef","population":2650,"postalCode":"57700","lat":49.3149,"lng":6.0139,"department":"Moselle","departmentCode":"57","country":"FR","distanceKm":7.5},{"name":"Bertrange","slug":"bertrange","population":2941,"postalCode":"57310","lat":49.3154,"lng":6.1929,"department":"Moselle","departmentCode":"57","country":"FR","distanceKm":7.6},{"name":"Guénange","slug":"guenange","population":8083,"postalCode":"57310","lat":49.2985,"lng":6.2029,"department":"Moselle","departmentCode":"57","country":"FR","distanceKm":7.6},{"name":"Terville","slug":"terville","population":7801,"postalCode":"57180","lat":49.3454,"lng":6.1334,"department":"Moselle","departmentCode":"57","country":"FR","distanceKm":7.6},{"name":"Illange","slug":"illange","population":1770,"postalCode":"57970","lat":49.3294,"lng":6.1839,"department":"Moselle","departmentCode":"57","country":"FR","distanceKm":8.1},{"name":"Knutange","slug":"knutange","population":3199,"postalCode":"57240","lat":49.3373,"lng":6.0319,"department":"Moselle","departmentCode":"57","country":"FR","distanceKm":8.2},{"name":"Montois-la-Montagne","slug":"montois-la-montagne","population":2711,"postalCode":"57860","lat":49.2267,"lng":6.0248,"department":"Moselle","departmentCode":"57","country":"FR","distanceKm":8.2},{"name":"Nilvange","slug":"nilvange","population":4341,"postalCode":"57240","lat":49.3453,"lng":6.0498,"department":"Moselle","departmentCode":"57","country":"FR","distanceKm":8.2},{"name":"Jœuf","slug":"j-uf","population":6392,"postalCode":"54240","lat":49.2322,"lng":6.0142,"department":"Meurthe-et-Moselle","departmentCode":"54","country":"FR","distanceKm":8.3},{"name":"Maizières-lès-Metz","slug":"maizieres-les-metz","population":11580,"postalCode":"57280","lat":49.21,"lng":6.1543,"department":"Moselle","departmentCode":"57","country":"FR","distanceKm":8.6},{"name":"Rurange-lès-Thionville","slug":"rurange-les-thionville","population":2327,"postalCode":"57310","lat":49.2713,"lng":6.232,"department":"Moselle","departmentCode":"57","country":"FR","distanceKm":9.4},{"name":"Semécourt","slug":"semecourt","population":1024,"postalCode":"57280","lat":49.1977,"lng":6.1359,"department":"Moselle","departmentCode":"57","country":"FR","distanceKm":9.4},{"name":"Bronvaux","slug":"bronvaux","population":503,"postalCode":"57535","lat":49.1925,"lng":6.0821,"department":"Moselle","departmentCode":"57","country":"FR","distanceKm":9.8},{"name":"Hauconcourt","slug":"hauconcourt","population":579,"postalCode":"57280","lat":49.2094,"lng":6.1844,"department":"Moselle","departmentCode":"57","country":"FR","distanceKm":9.8},{"name":"Roncourt","slug":"roncourt","population":1058,"postalCode":"57860","lat":49.1977,"lng":6.0519,"department":"Moselle","departmentCode":"57","country":"FR","distanceKm":9.8},{"name":"Fèves","slug":"feves","population":1193,"postalCode":"57280","lat":49.1903,"lng":6.1028,"department":"Moselle","departmentCode":"57","country":"FR","distanceKm":9.9},{"name":"Avril","slug":"avril","population":1225,"postalCode":"54150","lat":49.2924,"lng":5.9666,"department":"Meurthe-et-Moselle","departmentCode":"54","country":"FR","distanceKm":10},{"name":"Homécourt","slug":"homecourt","population":6254,"postalCode":"54310","lat":49.2246,"lng":5.9932,"department":"Meurthe-et-Moselle","departmentCode":"54","country":"FR","distanceKm":10},{"name":"Algrange","slug":"algrange","population":5802,"postalCode":"57440","lat":49.3653,"lng":6.0493,"department":"Moselle","departmentCode":"57","country":"FR","distanceKm":10.3},{"name":"Ennery","slug":"ennery","population":2322,"postalCode":"57365","lat":49.2273,"lng":6.2251,"department":"Moselle","departmentCode":"57","country":"FR","distanceKm":10.6},{"name":"Thionville","slug":"thionville","population":42658,"postalCode":"57100","lat":49.3718,"lng":6.1443,"department":"Moselle","departmentCode":"57","country":"FR","distanceKm":10.7},{"name":"Stuckange","slug":"stuckange","population":1515,"postalCode":"57970","lat":49.3249,"lng":6.2328,"department":"Moselle","departmentCode":"57","country":"FR","distanceKm":10.7},{"name":"Volstroff","slug":"volstroff","population":2044,"postalCode":"57940","lat":49.299,"lng":6.2492,"department":"Moselle","departmentCode":"57","country":"FR","distanceKm":10.8},{"name":"Lommerange","slug":"lommerange","population":380,"postalCode":"57650","lat":49.3252,"lng":5.969,"department":"Moselle","departmentCode":"57","country":"FR","distanceKm":10.9},{"name":"Trémery","slug":"tremery","population":965,"postalCode":"57300","lat":49.2538,"lng":6.248,"department":"Moselle","departmentCode":"57","country":"FR","distanceKm":10.9},{"name":"Val de Briey","slug":"val-de-briey","population":8130,"postalCode":"54150","lat":49.2663,"lng":5.9546,"department":"Meurthe-et-Moselle","departmentCode":"54","country":"FR","distanceKm":10.9},{"name":"Norroy-le-Veneur","slug":"norroy-le-veneur","population":993,"postalCode":"57140","lat":49.1801,"lng":6.1041,"department":"Moselle","departmentCode":"57","country":"FR","distanceKm":11.1},{"name":"Yutz","slug":"yutz","population":17391,"postalCode":"57970","lat":49.357,"lng":6.2,"department":"Moselle","departmentCode":"57","country":"FR","distanceKm":11.1},{"name":"Saint-Privat-la-Montagne","slug":"saint-privat-la-montagne","population":1878,"postalCode":"57855","lat":49.1853,"lng":6.0393,"department":"Moselle","departmentCode":"57","country":"FR","distanceKm":11.5},{"name":"Fontoy","slug":"fontoy","population":3184,"postalCode":"57650","lat":49.3583,"lng":5.996,"department":"Moselle","departmentCode":"57","country":"FR","distanceKm":11.7},{"name":"Moutiers","slug":"moutiers","population":1602,"postalCode":"54660","lat":49.2338,"lng":5.9555,"department":"Meurthe-et-Moselle","departmentCode":"54","country":"FR","distanceKm":11.8},{"name":"Auboué","slug":"auboue","population":2650,"postalCode":"54580","lat":49.2125,"lng":5.9752,"department":"Meurthe-et-Moselle","departmentCode":"54","country":"FR","distanceKm":11.9},{"name":"Argancy","slug":"argancy","population":1381,"postalCode":"57640","lat":49.2003,"lng":6.2141,"department":"Moselle","departmentCode":"57","country":"FR","distanceKm":12},{"name":"Plesnois","slug":"plesnois","population":772,"postalCode":"57140","lat":49.1715,"lng":6.1095,"department":"Moselle","departmentCode":"57","country":"FR","distanceKm":12},{"name":"Trieux","slug":"trieux","population":2753,"postalCode":"54750","lat":49.3222,"lng":5.9507,"department":"Meurthe-et-Moselle","departmentCode":"54","country":"FR","distanceKm":12},{"name":"Flévy","slug":"flevy","population":602,"postalCode":"57365","lat":49.2409,"lng":6.2591,"department":"Moselle","departmentCode":"57","country":"FR","distanceKm":12.1},{"name":"Manom","slug":"manom","population":3137,"postalCode":"57100","lat":49.3793,"lng":6.1726,"department":"Moselle","departmentCode":"57","country":"FR","distanceKm":12.2},{"name":"Sainte-Marie-aux-Chênes","slug":"sainte-marie-aux-chenes","population":4519,"postalCode":"57255","lat":49.1886,"lng":6.0086,"department":"Moselle","departmentCode":"57","country":"FR","distanceKm":12.2},{"name":"Kuntzig","slug":"kuntzig","population":1359,"postalCode":"57970","lat":49.3485,"lng":6.2386,"department":"Moselle","departmentCode":"57","country":"FR","distanceKm":12.5},{"name":"Angevillers","slug":"angevillers","population":1404,"postalCode":"57440","lat":49.3902,"lng":6.0475,"department":"Moselle","departmentCode":"57","country":"FR","distanceKm":12.9},{"name":"Distroff","slug":"distroff","population":1828,"postalCode":"57925","lat":49.3366,"lng":6.2593,"department":"Moselle","departmentCode":"57","country":"FR","distanceKm":13},{"name":"Chailly-lès-Ennery","slug":"chailly-les-ennery","population":394,"postalCode":"57365","lat":49.2149,"lng":6.254,"department":"Moselle","departmentCode":"57","country":"FR","distanceKm":13.1},{"name":"Saulny","slug":"saulny","population":1590,"postalCode":"57140","lat":49.1607,"lng":6.0983,"department":"Moselle","departmentCode":"57","country":"FR","distanceKm":13.2},{"name":"Woippy","slug":"woippy","population":14967,"postalCode":"57140","lat":49.1651,"lng":6.1552,"department":"Moselle","departmentCode":"57","country":"FR","distanceKm":13.3},{"name":"Amanvillers","slug":"amanvillers","population":2188,"postalCode":"57865","lat":49.1615,"lng":6.0429,"department":"Moselle","departmentCode":"57","country":"FR","distanceKm":13.8},{"name":"Antilly","slug":"antilly","population":198,"postalCode":"57640","lat":49.1995,"lng":6.2481,"department":"Moselle","departmentCode":"57","country":"FR","distanceKm":13.8},{"name":"Luttange","slug":"luttange","population":983,"postalCode":"57935","lat":49.2779,"lng":6.2928,"department":"Moselle","departmentCode":"57","country":"FR","distanceKm":13.8},{"name":"Metzervisse","slug":"metzervisse","population":2277,"postalCode":"57940","lat":49.3154,"lng":6.2845,"department":"Moselle","departmentCode":"57","country":"FR","distanceKm":13.8},{"name":"Havange","slug":"havange","population":456,"postalCode":"57650","lat":49.3884,"lng":5.999,"department":"Moselle","departmentCode":"57","country":"FR","distanceKm":14.2},{"name":"Saint-Ail","slug":"saint-ail","population":465,"postalCode":"54580","lat":49.169,"lng":6.0058,"department":"Meurthe-et-Moselle","departmentCode":"54","country":"FR","distanceKm":14.2},{"name":"Valmestroff","slug":"valmestroff","population":364,"postalCode":"57970","lat":49.3578,"lng":6.2598,"department":"Moselle","departmentCode":"57","country":"FR","distanceKm":14.3},{"name":"Bettainvillers","slug":"bettainvillers","population":374,"postalCode":"54640","lat":49.2982,"lng":5.9073,"department":"Meurthe-et-Moselle","departmentCode":"54","country":"FR","distanceKm":14.3},{"name":"Moineville","slug":"moineville","population":1114,"postalCode":"54580","lat":49.1991,"lng":5.9489,"department":"Meurthe-et-Moselle","departmentCode":"54","country":"FR","distanceKm":14.3},{"name":"Basse-Ham","slug":"basse-ham","population":2349,"postalCode":"57970","lat":49.3748,"lng":6.2382,"department":"Moselle","departmentCode":"57","country":"FR","distanceKm":14.4},{"name":"Sancy","slug":"sancy","population":365,"postalCode":"54560","lat":49.3523,"lng":5.9372,"department":"Meurthe-et-Moselle","departmentCode":"54","country":"FR","distanceKm":14.5},{"name":"Malroy","slug":"malroy","population":353,"postalCode":"57640","lat":49.1716,"lng":6.217,"department":"Moselle","departmentCode":"57","country":"FR","distanceKm":14.6},{"name":"Metzeresche","slug":"metzeresche","population":1020,"postalCode":"57920","lat":49.2953,"lng":6.3021,"department":"Moselle","departmentCode":"57","country":"FR","distanceKm":14.6},{"name":"La Maxe","slug":"la-maxe","population":1056,"postalCode":"57140","lat":49.1604,"lng":6.1901,"department":"Moselle","departmentCode":"57","country":"FR","distanceKm":14.7},{"name":"Entrange","slug":"entrange","population":1218,"postalCode":"57330","lat":49.4145,"lng":6.1136,"department":"Moselle","departmentCode":"57","country":"FR","distanceKm":15},{"name":"Lorry-lès-Metz","slug":"lorry-les-metz","population":1720,"postalCode":"57050","lat":49.1445,"lng":6.1043,"department":"Moselle","departmentCode":"57","country":"FR","distanceKm":15},{"name":"Batilly","slug":"batilly","population":1313,"postalCode":"54980","lat":49.1756,"lng":5.9686,"department":"Meurthe-et-Moselle","departmentCode":"54","country":"FR","distanceKm":15.1},{"name":"Escherange","slug":"escherange","population":693,"postalCode":"57330","lat":49.4157,"lng":6.0656,"department":"Moselle","departmentCode":"57","country":"FR","distanceKm":15.4},{"name":"Tucquegnieux","slug":"tucquegnieux","population":2441,"postalCode":"54640","lat":49.3093,"lng":5.8947,"department":"Meurthe-et-Moselle","departmentCode":"54","country":"FR","distanceKm":15.4},{"name":"Rochonvillers","slug":"rochonvillers","population":215,"postalCode":"57840","lat":49.4103,"lng":6.0263,"department":"Moselle","departmentCode":"57","country":"FR","distanceKm":15.5},{"name":"Bettelainville","slug":"bettelainville","population":626,"postalCode":"57640","lat":49.2456,"lng":6.3122,"department":"Moselle","departmentCode":"57","country":"FR","distanceKm":15.7},{"name":"Boulange","slug":"boulange","population":2427,"postalCode":"57655","lat":49.3848,"lng":5.9553,"department":"Moselle","departmentCode":"57","country":"FR","distanceKm":15.8},{"name":"Charly-Oradour","slug":"charly-oradour","population":810,"postalCode":"57640","lat":49.1744,"lng":6.249,"department":"Moselle","departmentCode":"57","country":"FR","distanceKm":15.8},{"name":"Valleroy","slug":"valleroy","population":2375,"postalCode":"54910","lat":49.2151,"lng":5.9096,"department":"Meurthe-et-Moselle","departmentCode":"54","country":"FR","distanceKm":15.8},{"name":"Chieulles","slug":"chieulles","population":408,"postalCode":"57070","lat":49.1577,"lng":6.2187,"department":"Moselle","departmentCode":"57","country":"FR","distanceKm":16},{"name":"Hettange-Grande","slug":"hettange-grande","population":7772,"postalCode":"57330","lat":49.4196,"lng":6.154,"department":"Moselle","departmentCode":"57","country":"FR","distanceKm":16},{"name":"Lantéfontaine","slug":"lantefontaine","population":730,"postalCode":"54150","lat":49.2534,"lng":5.8866,"department":"Meurthe-et-Moselle","departmentCode":"54","country":"FR","distanceKm":16},{"name":"Inglange","slug":"inglange","population":386,"postalCode":"57970","lat":49.3448,"lng":6.3011,"department":"Moselle","departmentCode":"57","country":"FR","distanceKm":16.1},{"name":"Les Baroches","slug":"les-baroches","population":325,"postalCode":"54150","lat":49.2307,"lng":5.8881,"department":"Meurthe-et-Moselle","departmentCode":"54","country":"FR","distanceKm":16.5},{"name":"Elzange","slug":"elzange","population":666,"postalCode":"57970","lat":49.3574,"lng":6.2985,"department":"Moselle","departmentCode":"57","country":"FR","distanceKm":16.6},{"name":"Plappeville","slug":"plappeville","population":2027,"postalCode":"57050","lat":49.1311,"lng":6.1236,"department":"Moselle","departmentCode":"57","country":"FR","distanceKm":16.6},{"name":"Sanry-lès-Vigy","slug":"sanry-les-vigy","population":507,"postalCode":"57640","lat":49.1846,"lng":6.2803,"department":"Moselle","departmentCode":"57","country":"FR","distanceKm":16.7},{"name":"Jouaville","slug":"jouaville","population":274,"postalCode":"54800","lat":49.1603,"lng":5.9643,"department":"Meurthe-et-Moselle","departmentCode":"54","country":"FR","distanceKm":16.7},{"name":"Buding","slug":"buding","population":562,"postalCode":"57920","lat":49.327,"lng":6.3245,"department":"Moselle","departmentCode":"57","country":"FR","distanceKm":16.9},{"name":"Châtel-Saint-Germain","slug":"chatel-saint-germain","population":1880,"postalCode":"57160","lat":49.1297,"lng":6.0642,"department":"Moselle","departmentCode":"57","country":"FR","distanceKm":16.9},{"name":"Tressange","slug":"tressange","population":2470,"postalCode":"57710","lat":49.4108,"lng":5.9836,"department":"Moselle","departmentCode":"57","country":"FR","distanceKm":16.9},{"name":"Anoux","slug":"anoux","population":270,"postalCode":"54150","lat":49.2739,"lng":5.8683,"department":"Meurthe-et-Moselle","departmentCode":"54","country":"FR","distanceKm":17},{"name":"Lessy","slug":"lessy","population":794,"postalCode":"57160","lat":49.1261,"lng":6.1017,"department":"Moselle","departmentCode":"57","country":"FR","distanceKm":17.1},{"name":"Vigy","slug":"vigy","population":1522,"postalCode":"57640","lat":49.2084,"lng":6.3126,"department":"Moselle","departmentCode":"57","country":"FR","distanceKm":17.2},{"name":"Anderny","slug":"anderny","population":254,"postalCode":"54560","lat":49.3371,"lng":5.8818,"department":"Meurthe-et-Moselle","departmentCode":"54","country":"FR","distanceKm":17.2},{"name":"Kanfen","slug":"kanfen","population":1235,"postalCode":"57330","lat":49.435,"lng":6.1141,"department":"Moselle","departmentCode":"57","country":"FR","distanceKm":17.3},{"name":"Vany","slug":"vany","population":478,"postalCode":"57070","lat":49.153,"lng":6.2404,"department":"Moselle","departmentCode":"57","country":"FR","distanceKm":17.3},{"name":"Vernéville","slug":"verneville","population":715,"postalCode":"57130","lat":49.1362,"lng":6.0085,"department":"Moselle","departmentCode":"57","country":"FR","distanceKm":17.4},{"name":"Saint-Julien-lès-Metz","slug":"saint-julien-les-metz","population":3554,"postalCode":"57070","lat":49.1375,"lng":6.2101,"department":"Moselle","departmentCode":"57","country":"FR","distanceKm":17.6},{"name":"Hatrize","slug":"hatrize","population":838,"postalCode":"54800","lat":49.1962,"lng":5.8963,"department":"Meurthe-et-Moselle","departmentCode":"54","country":"FR","distanceKm":17.6},{"name":"Mairy-Mainville","slug":"mairy-mainville","population":551,"postalCode":"54150","lat":49.3046,"lng":5.8631,"department":"Meurthe-et-Moselle","departmentCode":"54","country":"FR","distanceKm":17.6},{"name":"Le Ban-Saint-Martin","slug":"le-ban-saint-martin","population":4684,"postalCode":"57050","lat":49.1232,"lng":6.1434,"department":"Moselle","departmentCode":"57","country":"FR","distanceKm":17.7},{"name":"Cattenom","slug":"cattenom","population":2580,"postalCode":"57570","lat":49.4138,"lng":6.2345,"department":"Moselle","departmentCode":"57","country":"FR","distanceKm":17.7},{"name":"Audun-le-Roman","slug":"audun-le-roman","population":2483,"postalCode":"54560","lat":49.3639,"lng":5.8939,"department":"Meurthe-et-Moselle","departmentCode":"54","country":"FR","distanceKm":17.8},{"name":"Kédange-sur-Canner","slug":"kedange-sur-canner","population":1121,"postalCode":"57920","lat":49.3104,"lng":6.3454,"department":"Moselle","departmentCode":"57","country":"FR","distanceKm":17.9},{"name":"Beuvillers","slug":"beuvillers","population":557,"postalCode":"54560","lat":49.388,"lng":5.9174,"department":"Meurthe-et-Moselle","departmentCode":"54","country":"FR","distanceKm":18},{"name":"Kœnigsmacker","slug":"k-nigsmacker","population":2224,"postalCode":"57970","lat":49.3911,"lng":6.2842,"department":"Moselle","departmentCode":"57","country":"FR","distanceKm":18.1},{"name":"Rozérieulles","slug":"rozerieulles","population":1334,"postalCode":"57160","lat":49.1203,"lng":6.0558,"department":"Moselle","departmentCode":"57","country":"FR","distanceKm":18.1},{"name":"Failly","slug":"failly","population":532,"postalCode":"57640","lat":49.1604,"lng":6.2748,"department":"Moselle","departmentCode":"57","country":"FR","distanceKm":18.2},{"name":"Giraumont","slug":"giraumont","population":1380,"postalCode":"54780","lat":49.171,"lng":5.9149,"department":"Meurthe-et-Moselle","departmentCode":"54","country":"FR","distanceKm":18.2},{"name":"Lubey","slug":"lubey","population":215,"postalCode":"54150","lat":49.2464,"lng":5.8575,"department":"Meurthe-et-Moselle","departmentCode":"54","country":"FR","distanceKm":18.2},{"name":"Boust","slug":"boust","population":1157,"postalCode":"57570","lat":49.434,"lng":6.1936,"department":"Moselle","departmentCode":"57","country":"FR","distanceKm":18.4},{"name":"Scy-Chazelles","slug":"scy-chazelles","population":2753,"postalCode":"57160","lat":49.1148,"lng":6.1214,"department":"Moselle","departmentCode":"57","country":"FR","distanceKm":18.4},{"name":"Hombourg-Budange","slug":"hombourg-budange","population":562,"postalCode":"57920","lat":49.2869,"lng":6.3577,"department":"Moselle","departmentCode":"57","country":"FR","distanceKm":18.5},{"name":"Aboncourt","slug":"aboncourt","population":320,"postalCode":"57920","lat":49.2544,"lng":6.3558,"department":"Moselle","departmentCode":"57","country":"FR","distanceKm":18.6},{"name":"Longeville-lès-Metz","slug":"longeville-les-metz","population":4102,"postalCode":"57050","lat":49.1144,"lng":6.1464,"department":"Moselle","departmentCode":"57","country":"FR","distanceKm":18.7},{"name":"Mey","slug":"mey","population":309,"postalCode":"57070","lat":49.1367,"lng":6.2378,"department":"Moselle","departmentCode":"57","country":"FR","distanceKm":18.7},{"name":"Vantoux","slug":"vantoux","population":823,"postalCode":"57070","lat":49.1336,"lng":6.2323,"department":"Moselle","departmentCode":"57","country":"FR","distanceKm":18.8},{"name":"Volmerange-les-Mines","slug":"volmerange-les-mines","population":2289,"postalCode":"57330","lat":49.4471,"lng":6.0673,"department":"Moselle","departmentCode":"57","country":"FR","distanceKm":18.8},{"name":"Ottange","slug":"ottange","population":2960,"postalCode":"57840","lat":49.4364,"lng":6.0031,"department":"Moselle","departmentCode":"57","country":"FR","distanceKm":18.9},{"name":"Aumetz","slug":"aumetz","population":2418,"postalCode":"57710","lat":49.4179,"lng":5.9487,"department":"Moselle","departmentCode":"57","country":"FR","distanceKm":19},{"name":"Budling","slug":"budling","population":165,"postalCode":"57970","lat":49.3466,"lng":6.3442,"department":"Moselle","departmentCode":"57","country":"FR","distanceKm":19},{"name":"Sainte-Ruffine","slug":"sainte-ruffine","population":623,"postalCode":"57130","lat":49.1068,"lng":6.0967,"department":"Moselle","departmentCode":"57","country":"FR","distanceKm":19.2},{"name":"Servigny-lès-Sainte-Barbe","slug":"servigny-les-sainte-barbe","population":462,"postalCode":"57640","lat":49.1486,"lng":6.2759,"department":"Moselle","departmentCode":"57","country":"FR","distanceKm":19.3},{"name":"Doncourt-lès-Conflans","slug":"doncourt-les-conflans","population":1110,"postalCode":"54800","lat":49.1465,"lng":5.9311,"department":"Meurthe-et-Moselle","departmentCode":"54","country":"FR","distanceKm":19.4},{"name":"Malavillers","slug":"malavillers","population":122,"postalCode":"54560","lat":49.3588,"lng":5.8649,"department":"Meurthe-et-Moselle","departmentCode":"54","country":"FR","distanceKm":19.4},{"name":"Gravelotte","slug":"gravelotte","population":817,"postalCode":"57130","lat":49.1114,"lng":6.0251,"department":"Moselle","departmentCode":"57","country":"FR","distanceKm":19.5},{"name":"Mont-Bonvillers","slug":"mont-bonvillers","population":965,"postalCode":"54111","lat":49.3283,"lng":5.844,"department":"Meurthe-et-Moselle","departmentCode":"54","country":"FR","distanceKm":19.5},{"name":"Klang","slug":"klang","population":208,"postalCode":"57920","lat":49.3173,"lng":6.3674,"department":"Moselle","departmentCode":"57","country":"FR","distanceKm":19.6},{"name":"Saint-Hubert","slug":"saint-hubert","population":229,"postalCode":"57640","lat":49.2338,"lng":6.363,"department":"Moselle","departmentCode":"57","country":"FR","distanceKm":19.6},{"name":"Saint-Marcel","slug":"saint-marcel","population":150,"postalCode":"54800","lat":49.1255,"lng":5.9731,"department":"Meurthe-et-Moselle","departmentCode":"54","country":"FR","distanceKm":19.6},{"name":"Nouilly","slug":"nouilly","population":719,"postalCode":"57645","lat":49.1335,"lng":6.2569,"department":"Moselle","departmentCode":"57","country":"FR","distanceKm":19.7},{"name":"Ozerailles","slug":"ozerailles","population":145,"postalCode":"54150","lat":49.2248,"lng":5.8429,"department":"Meurthe-et-Moselle","departmentCode":"54","country":"FR","distanceKm":19.8},{"name":"Jussy","slug":"jussy","population":466,"postalCode":"57130","lat":49.1018,"lng":6.0761,"department":"Moselle","departmentCode":"57","country":"FR","distanceKm":19.9},{"name":"Veckring","slug":"veckring","population":659,"postalCode":"57920","lat":49.3343,"lng":6.3637,"department":"Moselle","departmentCode":"57","country":"FR","distanceKm":19.9},{"name":"Lenningen","slug":"lenningen","population":2500,"postalCode":"","lat":49.4411,"lng":6.2242,"department":"Luxembourg","departmentCode":"LU","country":"LU","distanceKm":20},{"name":"Noisseville","slug":"noisseville","population":1109,"postalCode":"57645","lat":49.1343,"lng":6.2696,"department":"Moselle","departmentCode":"57","country":"FR","distanceKm":20.2},{"name":"Labry","slug":"labry","population":1554,"postalCode":"54800","lat":49.1819,"lng":5.868,"department":"Meurthe-et-Moselle","departmentCode":"54","country":"FR","distanceKm":20.2},{"name":"Vaux","slug":"vaux","population":792,"postalCode":"57130","lat":49.0978,"lng":6.0735,"department":"Moselle","departmentCode":"57","country":"FR","distanceKm":20.3},{"name":"Sainte-Barbe","slug":"sainte-barbe","population":786,"postalCode":"57640","lat":49.1639,"lng":6.322,"department":"Moselle","departmentCode":"57","country":"FR","distanceKm":20.5},{"name":"Metz","slug":"metz","population":122572,"postalCode":"57000","lat":49.1048,"lng":6.1962,"department":"Moselle","departmentCode":"57","country":"FR","distanceKm":20.6},{"name":"Abbéville-lès-Conflans","slug":"abbeville-les-conflans","population":240,"postalCode":"54800","lat":49.2005,"lng":5.8464,"department":"Meurthe-et-Moselle","departmentCode":"54","country":"FR","distanceKm":20.6},{"name":"Serrouville","slug":"serrouville","population":683,"postalCode":"54560","lat":49.3941,"lng":5.8783,"department":"Meurthe-et-Moselle","departmentCode":"54","country":"FR","distanceKm":20.6},{"name":"Montigny-lès-Metz","slug":"montigny-les-metz","population":21718,"postalCode":"57950","lat":49.0966,"lng":6.1548,"department":"Moselle","departmentCode":"57","country":"FR","distanceKm":20.7},{"name":"Moulins-lès-Metz","slug":"moulins-les-metz","population":5265,"postalCode":"57160","lat":49.0929,"lng":6.1192,"department":"Moselle","departmentCode":"57","country":"FR","distanceKm":20.8},{"name":"Roussy-le-Village","slug":"roussy-le-village","population":1592,"postalCode":"57330","lat":49.4606,"lng":6.1778,"department":"Moselle","departmentCode":"57","country":"FR","distanceKm":20.8},{"name":"Rumelange","slug":"rumelange","population":5500,"postalCode":"","lat":49.4606,"lng":6.0281,"department":"Luxembourg","departmentCode":"LU","country":"LU","distanceKm":20.8},{"name":"Oudrenne","slug":"oudrenne","population":724,"postalCode":"57970","lat":49.3749,"lng":6.3519,"department":"Moselle","departmentCode":"57","country":"FR","distanceKm":20.9},{"name":"Zoufftgen","slug":"zoufftgen","population":1264,"postalCode":"57330","lat":49.4659,"lng":6.1375,"department":"Moselle","departmentCode":"57","country":"FR","distanceKm":20.9},{"name":"Vry","slug":"vry","population":631,"postalCode":"57640","lat":49.1941,"lng":6.36,"department":"Moselle","departmentCode":"57","country":"FR","distanceKm":21},{"name":"Murville","slug":"murville","population":239,"postalCode":"54490","lat":49.3445,"lng":5.83,"department":"Meurthe-et-Moselle","departmentCode":"54","country":"FR","distanceKm":21},{"name":"Malling","slug":"malling","population":681,"postalCode":"57480","lat":49.4146,"lng":6.3084,"department":"Moselle","departmentCode":"57","country":"FR","distanceKm":21.1},{"name":"Bous","slug":"bous","population":1500,"postalCode":"","lat":49.4536,"lng":6.2186,"department":"Luxembourg","departmentCode":"LU","country":"LU","distanceKm":21.1},{"name":"Breistroff-la-Grande","slug":"breistroff-la-grande","population":876,"postalCode":"57570","lat":49.4541,"lng":6.2243,"department":"Moselle","departmentCode":"57","country":"FR","distanceKm":21.3},{"name":"Norroy-le-Sec","slug":"norroy-le-sec","population":431,"postalCode":"54150","lat":49.2744,"lng":5.8083,"department":"Meurthe-et-Moselle","departmentCode":"54","country":"FR","distanceKm":21.4},{"name":"Errouville","slug":"errouville","population":682,"postalCode":"54680","lat":49.4176,"lng":5.8951,"department":"Meurthe-et-Moselle","departmentCode":"54","country":"FR","distanceKm":21.5},{"name":"Ébersviller","slug":"ebersviller","population":963,"postalCode":"57320","lat":49.2797,"lng":6.4005,"department":"Moselle","departmentCode":"57","country":"FR","distanceKm":21.6},{"name":"Bruville","slug":"bruville","population":217,"postalCode":"54800","lat":49.1219,"lng":5.9287,"department":"Meurthe-et-Moselle","departmentCode":"54","country":"FR","distanceKm":21.6},{"name":"Crusnes","slug":"crusnes","population":1559,"postalCode":"54680","lat":49.4335,"lng":5.9197,"department":"Meurthe-et-Moselle","departmentCode":"54","country":"FR","distanceKm":21.6},{"name":"Dalstein","slug":"dalstein","population":376,"postalCode":"57320","lat":49.3067,"lng":6.4024,"department":"Moselle","departmentCode":"57","country":"FR","distanceKm":21.9},{"name":"Fixem","slug":"fixem","population":397,"postalCode":"57570","lat":49.443,"lng":6.271,"department":"Moselle","departmentCode":"57","country":"FR","distanceKm":21.9},{"name":"Landres","slug":"landres","population":989,"postalCode":"54970","lat":49.3179,"lng":5.8072,"department":"Meurthe-et-Moselle","departmentCode":"54","country":"FR","distanceKm":21.9},{"name":"Frisange","slug":"frisange","population":6200,"postalCode":"","lat":49.4714,"lng":6.1742,"department":"Luxembourg","departmentCode":"LU","country":"LU","distanceKm":21.9},{"name":"Ars-sur-Moselle","slug":"ars-sur-moselle","population":4616,"postalCode":"57130","lat":49.0853,"lng":6.0483,"department":"Moselle","departmentCode":"57","country":"FR","distanceKm":22},{"name":"Gavisse","slug":"gavisse","population":602,"postalCode":"57570","lat":49.4369,"lng":6.2862,"department":"Moselle","departmentCode":"57","country":"FR","distanceKm":22},{"name":"Kemplich","slug":"kemplich","population":181,"postalCode":"57920","lat":49.3239,"lng":6.3983,"department":"Moselle","departmentCode":"57","country":"FR","distanceKm":22},{"name":"Fléville-Lixières","slug":"fleville-lixieres","population":299,"postalCode":"54150","lat":49.2428,"lng":5.8052,"department":"Meurthe-et-Moselle","departmentCode":"54","country":"FR","distanceKm":22},{"name":"Hunting","slug":"hunting","population":673,"postalCode":"57480","lat":49.4137,"lng":6.3283,"department":"Moselle","departmentCode":"57","country":"FR","distanceKm":22.1},{"name":"Jarny","slug":"jarny","population":8050,"postalCode":"54800","lat":49.1491,"lng":5.8739,"department":"Meurthe-et-Moselle","departmentCode":"54","country":"FR","distanceKm":22.1},{"name":"Dudelange","slug":"dudelange","population":21000,"postalCode":"","lat":49.4806,"lng":6.0867,"department":"Luxembourg","departmentCode":"LU","country":"LU","distanceKm":22.4},{"name":"Kayl","slug":"kayl","population":9500,"postalCode":"","lat":49.4756,"lng":6.0306,"department":"Luxembourg","departmentCode":"LU","country":"LU","distanceKm":22.4},{"name":"Retonfey","slug":"retonfey","population":1327,"postalCode":"57645","lat":49.1342,"lng":6.3171,"department":"Moselle","departmentCode":"57","country":"FR","distanceKm":22.5},{"name":"Conflans-en-Jarnisy","slug":"conflans-en-jarnisy","population":2389,"postalCode":"54800","lat":49.1666,"lng":5.8462,"department":"Meurthe-et-Moselle","departmentCode":"54","country":"FR","distanceKm":22.5},{"name":"Tetange","slug":"tetange","population":1800,"postalCode":"","lat":49.4706,"lng":5.9978,"department":"Luxembourg","departmentCode":"LU","country":"LU","distanceKm":22.5},{"name":"Rodemack","slug":"rodemack","population":1277,"postalCode":"57570","lat":49.4606,"lng":6.2459,"department":"Moselle","departmentCode":"57","country":"FR","distanceKm":22.6},{"name":"Mercy-le-Haut","slug":"mercy-le-haut","population":276,"postalCode":"54560","lat":49.3694,"lng":5.8233,"department":"Meurthe-et-Moselle","departmentCode":"54","country":"FR","distanceKm":22.6},{"name":"Coincy","slug":"coincy","population":334,"postalCode":"57530","lat":49.1073,"lng":6.2708,"department":"Moselle","departmentCode":"57","country":"FR","distanceKm":22.7},{"name":"Audun-le-Tiche","slug":"audun-le-tiche","population":7356,"postalCode":"57390","lat":49.4619,"lng":5.9593,"department":"Moselle","departmentCode":"57","country":"FR","distanceKm":22.8},{"name":"Berg-sur-Moselle","slug":"berg-sur-moselle","population":461,"postalCode":"57570","lat":49.4335,"lng":6.3102,"department":"Moselle","departmentCode":"57","country":"FR","distanceKm":22.8},{"name":"Burtoncourt","slug":"burtoncourt","population":228,"postalCode":"57220","lat":49.2242,"lng":6.4052,"department":"Moselle","departmentCode":"57","country":"FR","distanceKm":22.8},{"name":"Piblange","slug":"piblange","population":943,"postalCode":"57220","lat":49.2454,"lng":6.4129,"department":"Moselle","departmentCode":"57","country":"FR","distanceKm":22.8},{"name":"Ogy-Montoy-Flanville","slug":"ogy-montoy-flanville","population":1806,"postalCode":"57530","lat":49.116,"lng":6.2953,"department":"Moselle","departmentCode":"57","country":"FR","distanceKm":23},{"name":"Thumeréville","slug":"thumereville","population":103,"postalCode":"54800","lat":49.2061,"lng":5.805,"department":"Meurthe-et-Moselle","departmentCode":"54","country":"FR","distanceKm":23.1},{"name":"Kerling-lès-Sierck","slug":"kerling-les-sierck","population":599,"postalCode":"57480","lat":49.3919,"lng":6.3732,"department":"Moselle","departmentCode":"57","country":"FR","distanceKm":23.2},{"name":"Piennes","slug":"piennes","population":2441,"postalCode":"54490","lat":49.3074,"lng":5.7851,"department":"Meurthe-et-Moselle","departmentCode":"54","country":"FR","distanceKm":23.2},{"name":"Hestroff","slug":"hestroff","population":482,"postalCode":"57320","lat":49.2648,"lng":6.4233,"department":"Moselle","departmentCode":"57","country":"FR","distanceKm":23.3},{"name":"Preutin-Higny","slug":"preutin-higny","population":160,"postalCode":"54490","lat":49.348,"lng":5.7992,"department":"Meurthe-et-Moselle","departmentCode":"54","country":"FR","distanceKm":23.3},{"name":"Hayes","slug":"hayes","population":251,"postalCode":"57530","lat":49.1712,"lng":6.3789,"department":"Moselle","departmentCode":"57","country":"FR","distanceKm":23.4},{"name":"Joudreville","slug":"joudreville","population":1101,"postalCode":"54490","lat":49.287,"lng":5.781,"department":"Meurthe-et-Moselle","departmentCode":"54","country":"FR","distanceKm":23.4},{"name":"Rezonville-Vionville","slug":"rezonville-vionville","population":517,"postalCode":"57130","lat":49.0877,"lng":5.9684,"department":"Moselle","departmentCode":"57","country":"FR","distanceKm":23.5},{"name":"Boncourt","slug":"boncourt","population":179,"postalCode":"54800","lat":49.1707,"lng":5.8259,"department":"Meurthe-et-Moselle","departmentCode":"54","country":"FR","distanceKm":23.5},{"name":"Glatigny","slug":"glatigny","population":256,"postalCode":"57530","lat":49.141,"lng":6.3488,"department":"Moselle","departmentCode":"57","country":"FR","distanceKm":23.6},{"name":"Bréhain-la-Ville","slug":"brehain-la-ville","population":463,"postalCode":"54190","lat":49.4378,"lng":5.8853,"department":"Meurthe-et-Moselle","departmentCode":"54","country":"FR","distanceKm":23.6},{"name":"Jouy-aux-Arches","slug":"jouy-aux-arches","population":1430,"postalCode":"57130","lat":49.0667,"lng":6.084,"department":"Moselle","departmentCode":"57","country":"FR","distanceKm":23.7},{"name":"Marly","slug":"marly","population":10286,"postalCode":"57155","lat":49.068,"lng":6.154,"department":"Moselle","departmentCode":"57","country":"FR","distanceKm":23.8},{"name":"Charleville-sous-Bois","slug":"charleville-sous-bois","population":284,"postalCode":"57220","lat":49.1929,"lng":6.4058,"department":"Moselle","departmentCode":"57","country":"FR","distanceKm":24},{"name":"Monneren","slug":"monneren","population":398,"postalCode":"57920","lat":49.3487,"lng":6.4163,"department":"Moselle","departmentCode":"57","country":"FR","distanceKm":24},{"name":"Fillières","slug":"fillieres","population":531,"postalCode":"54560","lat":49.4119,"lng":5.8408,"department":"Meurthe-et-Moselle","departmentCode":"54","country":"FR","distanceKm":24},{"name":"Menskirch","slug":"menskirch","population":141,"postalCode":"57320","lat":49.3193,"lng":6.4302,"department":"Moselle","departmentCode":"57","country":"FR","distanceKm":24.1},{"name":"Rettel","slug":"rettel","population":869,"postalCode":"57480","lat":49.4323,"lng":6.34,"department":"Moselle","departmentCode":"57","country":"FR","distanceKm":24.1},{"name":"Ancy-Dornot","slug":"ancy-dornot","population":1490,"postalCode":"57130","lat":49.0645,"lng":6.0474,"department":"Moselle","departmentCode":"57","country":"FR","distanceKm":24.3},{"name":"Villerupt","slug":"villerupt","population":10102,"postalCode":"54190","lat":49.466,"lng":5.9275,"department":"Meurthe-et-Moselle","departmentCode":"54","country":"FR","distanceKm":24.3},{"name":"Ville-sur-Yron","slug":"ville-sur-yron","population":293,"postalCode":"54800","lat":49.1225,"lng":5.8712,"department":"Meurthe-et-Moselle","departmentCode":"54","country":"FR","distanceKm":24.3},{"name":"Mouaville","slug":"mouaville","population":106,"postalCode":"54800","lat":49.2134,"lng":5.7817,"department":"Meurthe-et-Moselle","departmentCode":"54","country":"FR","distanceKm":24.4},{"name":"Stadtbredimus","slug":"stadtbredimus","population":1800,"postalCode":"","lat":49.4603,"lng":6.2939,"department":"Luxembourg","departmentCode":"LU","country":"LU","distanceKm":24.4},{"name":"Hagen","slug":"hagen","population":387,"postalCode":"57570","lat":49.4972,"lng":6.1648,"department":"Moselle","departmentCode":"57","country":"FR","distanceKm":24.6},{"name":"Peltre","slug":"peltre","population":1790,"postalCode":"57245","lat":49.0731,"lng":6.2236,"department":"Moselle","departmentCode":"57","country":"FR","distanceKm":24.6},{"name":"Basse-Rentgen","slug":"basse-rentgen","population":524,"postalCode":"57570","lat":49.4913,"lng":6.2007,"department":"Moselle","departmentCode":"57","country":"FR","distanceKm":24.6},{"name":"Ars-Laquenexy","slug":"ars-laquenexy","population":934,"postalCode":"57530","lat":49.0855,"lng":6.268,"department":"Moselle","departmentCode":"57","country":"FR","distanceKm":24.7},{"name":"Les Étangs","slug":"les-etangs","population":421,"postalCode":"57530","lat":49.1455,"lng":6.3738,"department":"Moselle","departmentCode":"57","country":"FR","distanceKm":24.7},{"name":"Joppécourt","slug":"joppecourt","population":150,"postalCode":"54620","lat":49.3882,"lng":5.804,"department":"Meurthe-et-Moselle","departmentCode":"54","country":"FR","distanceKm":24.8},{"name":"Chémery-les-Deux","slug":"chemery-les-deux","population":597,"postalCode":"57320","lat":49.2992,"lng":6.4466,"department":"Moselle","departmentCode":"57","country":"FR","distanceKm":25},{"name":"Haute-Kontz","slug":"haute-kontz","population":532,"postalCode":"57480","lat":49.4553,"lng":6.3186,"department":"Moselle","departmentCode":"57","country":"FR","distanceKm":25},{"name":"Mégange","slug":"megange","population":138,"postalCode":"57220","lat":49.2256,"lng":6.4365,"department":"Moselle","departmentCode":"57","country":"FR","distanceKm":25},{"name":"Friauville","slug":"friauville","population":364,"postalCode":"54800","lat":49.1425,"lng":5.8298,"department":"Meurthe-et-Moselle","departmentCode":"54","country":"FR","distanceKm":25},{"name":"Augny","slug":"augny","population":2207,"postalCode":"57685","lat":49.0538,"lng":6.1097,"department":"Moselle","departmentCode":"57","country":"FR","distanceKm":25.1},{"name":"Affléville","slug":"affleville","population":172,"postalCode":"54800","lat":49.2627,"lng":5.7579,"department":"Meurthe-et-Moselle","departmentCode":"54","country":"FR","distanceKm":25.1},{"name":"Jeandelize","slug":"jeandelize","population":375,"postalCode":"54800","lat":49.1732,"lng":5.7987,"department":"Meurthe-et-Moselle","departmentCode":"54","country":"FR","distanceKm":25.1},{"name":"Domprix","slug":"domprix","population":97,"postalCode":"54490","lat":49.3303,"lng":5.7641,"department":"Meurthe-et-Moselle","departmentCode":"54","country":"FR","distanceKm":25.2},{"name":"Gondrecourt-Aix","slug":"gondrecourt-aix","population":183,"postalCode":"54800","lat":49.2443,"lng":5.7601,"department":"Meurthe-et-Moselle","departmentCode":"54","country":"FR","distanceKm":25.2},{"name":"Marsilly","slug":"marsilly","population":582,"postalCode":"57530","lat":49.0945,"lng":6.3057,"department":"Moselle","departmentCode":"57","country":"FR","distanceKm":25.3},{"name":"Montenach","slug":"montenach","population":495,"postalCode":"57480","lat":49.4137,"lng":6.3869,"department":"Moselle","departmentCode":"57","country":"FR","distanceKm":25.4},{"name":"Beyren-lès-Sierck","slug":"beyren-les-sierck","population":551,"postalCode":"57570","lat":49.4699,"lng":6.2993,"department":"Moselle","departmentCode":"57","country":"FR","distanceKm":25.5},{"name":"Sierck-les-Bains","slug":"sierck-les-bains","population":1765,"postalCode":"57480","lat":49.4368,"lng":6.3594,"department":"Moselle","departmentCode":"57","country":"FR","distanceKm":25.5},{"name":"Tronville","slug":"tronville","population":200,"postalCode":"54800","lat":49.0842,"lng":5.9207,"department":"Meurthe-et-Moselle","departmentCode":"54","country":"FR","distanceKm":25.5},{"name":"Évrange","slug":"evrange","population":246,"postalCode":"57570","lat":49.5013,"lng":6.1978,"department":"Moselle","departmentCode":"57","country":"FR","distanceKm":25.6},{"name":"Guinkirchen","slug":"guinkirchen","population":141,"postalCode":"57220","lat":49.2075,"lng":6.4372,"department":"Moselle","departmentCode":"57","country":"FR","distanceKm":25.6},{"name":"Jury","slug":"jury","population":1408,"postalCode":"57245","lat":49.0726,"lng":6.256,"department":"Moselle","departmentCode":"57","country":"FR","distanceKm":25.6},{"name":"Puttelange-lès-Thionville","slug":"puttelange-les-thionville","population":1029,"postalCode":"57570","lat":49.4862,"lng":6.2603,"department":"Moselle","departmentCode":"57","country":"FR","distanceKm":25.6},{"name":"Tiercelet","slug":"tiercelet","population":633,"postalCode":"54190","lat":49.4606,"lng":5.8839,"department":"Meurthe-et-Moselle","departmentCode":"54","country":"FR","distanceKm":25.6},{"name":"Esch-sur-Alzette","slug":"esch-sur-alzette","population":35500,"postalCode":"","lat":49.4958,"lng":5.9806,"department":"Luxembourg","departmentCode":"LU","country":"LU","distanceKm":25.6},{"name":"Schifflange","slug":"schifflange","population":8800,"postalCode":"","lat":49.5031,"lng":6.0167,"department":"Luxembourg","departmentCode":"LU","country":"LU","distanceKm":25.6},{"name":"Mars-la-Tour","slug":"mars-la-tour","population":875,"postalCode":"54800","lat":49.0942,"lng":5.8912,"department":"Meurthe-et-Moselle","departmentCode":"54","country":"FR","distanceKm":25.7},{"name":"Gorze","slug":"gorze","population":1120,"postalCode":"57680","lat":49.0597,"lng":5.9918,"department":"Moselle","departmentCode":"57","country":"FR","distanceKm":25.8},{"name":"Russange","slug":"russange","population":1263,"postalCode":"57390","lat":49.4888,"lng":5.947,"department":"Moselle","departmentCode":"57","country":"FR","distanceKm":25.8},{"name":"Silly-sur-Nied","slug":"silly-sur-nied","population":719,"postalCode":"57530","lat":49.1238,"lng":6.3659,"department":"Moselle","departmentCode":"57","country":"FR","distanceKm":25.8},{"name":"Thil","slug":"thil","population":2016,"postalCode":"54880","lat":49.4716,"lng":5.9033,"department":"Meurthe-et-Moselle","departmentCode":"54","country":"FR","distanceKm":25.8},{"name":"Colligny-Maizery","slug":"colligny-maizery","population":564,"postalCode":"57530","lat":49.104,"lng":6.3384,"department":"Moselle","departmentCode":"57","country":"FR","distanceKm":26},{"name":"Pouilly","slug":"pouilly","population":963,"postalCode":"57420","lat":49.0547,"lng":6.1996,"department":"Moselle","departmentCode":"57","country":"FR","distanceKm":26},{"name":"Saint-François-Lacroix","slug":"saint-francois-lacroix","population":317,"postalCode":"57320","lat":49.3453,"lng":6.4474,"department":"Moselle","departmentCode":"57","country":"FR","distanceKm":26},{"name":"Xivry-Circourt","slug":"xivry-circourt","population":266,"postalCode":"54490","lat":49.3577,"lng":5.7642,"department":"Meurthe-et-Moselle","departmentCode":"54","country":"FR","distanceKm":26},{"name":"Bettembourg","slug":"bettembourg","population":11500,"postalCode":"","lat":49.5131,"lng":6.1014,"department":"Luxembourg","departmentCode":"LU","country":"LU","distanceKm":26},{"name":"Anzeling","slug":"anzeling","population":480,"postalCode":"57320","lat":49.2704,"lng":6.463,"department":"Moselle","departmentCode":"57","country":"FR","distanceKm":26.2},{"name":"Bouligny","slug":"bouligny","population":2507,"postalCode":"55240","lat":49.293,"lng":5.7422,"department":"Meuse","departmentCode":"55","country":"FR","distanceKm":26.2},{"name":"Gomelange","slug":"gomelange","population":476,"postalCode":"57220","lat":49.2366,"lng":6.4591,"department":"Moselle","departmentCode":"57","country":"FR","distanceKm":26.3},{"name":"Ville-au-Montois","slug":"ville-au-montois","population":242,"postalCode":"54620","lat":49.4161,"lng":5.804,"department":"Meurthe-et-Moselle","departmentCode":"54","country":"FR","distanceKm":26.4},{"name":"Contz-les-Bains","slug":"contz-les-bains","population":548,"postalCode":"57480","lat":49.4569,"lng":6.3503,"department":"Moselle","departmentCode":"57","country":"FR","distanceKm":26.6},{"name":"Rustroff","slug":"rustroff","population":641,"postalCode":"57480","lat":49.4406,"lng":6.3766,"department":"Moselle","departmentCode":"57","country":"FR","distanceKm":26.7},{"name":"Avillers","slug":"avillers","population":141,"postalCode":"54490","lat":49.324,"lng":5.7387,"department":"Meurthe-et-Moselle","departmentCode":"54","country":"FR","distanceKm":26.9},{"name":"Hinckange","slug":"hinckange","population":321,"postalCode":"57220","lat":49.1851,"lng":6.446,"department":"Moselle","departmentCode":"57","country":"FR","distanceKm":27},{"name":"Laumesfeld","slug":"laumesfeld","population":278,"postalCode":"57480","lat":49.3696,"lng":6.4484,"department":"Moselle","departmentCode":"57","country":"FR","distanceKm":27},{"name":"Puxe","slug":"puxe","population":107,"postalCode":"54800","lat":49.1513,"lng":5.7872,"department":"Meurthe-et-Moselle","departmentCode":"54","country":"FR","distanceKm":27},{"name":"Condé-Northen","slug":"conde-northen","population":737,"postalCode":"57220","lat":49.1598,"lng":6.4283,"department":"Moselle","departmentCode":"57","country":"FR","distanceKm":27.1},{"name":"Rédange","slug":"redange","population":1014,"postalCode":"57390","lat":49.4914,"lng":5.9182,"department":"Moselle","departmentCode":"57","country":"FR","distanceKm":27.1},{"name":"Chesny","slug":"chesny","population":553,"postalCode":"57245","lat":49.053,"lng":6.2434,"department":"Moselle","departmentCode":"57","country":"FR","distanceKm":27.2},{"name":"Cuvry","slug":"cuvry","population":1096,"postalCode":"57420","lat":49.0381,"lng":6.1577,"department":"Moselle","departmentCode":"57","country":"FR","distanceKm":27.2},{"name":"Béchamps","slug":"bechamps","population":80,"postalCode":"54800","lat":49.2144,"lng":5.7415,"department":"Meurthe-et-Moselle","departmentCode":"54","country":"FR","distanceKm":27.2},{"name":"Olley","slug":"olley","population":220,"postalCode":"54800","lat":49.1738,"lng":5.7653,"department":"Meurthe-et-Moselle","departmentCode":"54","country":"FR","distanceKm":27.2},{"name":"Laquenexy","slug":"laquenexy","population":1255,"postalCode":"57530","lat":49.0766,"lng":6.3126,"department":"Moselle","departmentCode":"57","country":"FR","distanceKm":27.3},{"name":"Mondorff","slug":"mondorff","population":609,"postalCode":"57570","lat":49.504,"lng":6.2571,"department":"Moselle","departmentCode":"57","country":"FR","distanceKm":27.3},{"name":"Novéant-sur-Moselle","slug":"noveant-sur-moselle","population":1844,"postalCode":"57680","lat":49.0365,"lng":6.0393,"department":"Moselle","departmentCode":"57","country":"FR","distanceKm":27.4},{"name":"Brainville","slug":"brainville","population":167,"postalCode":"54800","lat":49.1251,"lng":5.809,"department":"Meurthe-et-Moselle","departmentCode":"54","country":"FR","distanceKm":27.4},{"name":"Courcelles-Chaussy","slug":"courcelles-chaussy","population":3006,"postalCode":"57530","lat":49.1206,"lng":6.3946,"department":"Moselle","departmentCode":"57","country":"FR","distanceKm":27.6},{"name":"Mercy-le-Bas","slug":"mercy-le-bas","population":1273,"postalCode":"54960","lat":49.3852,"lng":5.7582,"department":"Meurthe-et-Moselle","departmentCode":"54","country":"FR","distanceKm":27.6},{"name":"Morfontaine","slug":"morfontaine","population":1073,"postalCode":"54920","lat":49.4453,"lng":5.8193,"department":"Meurthe-et-Moselle","departmentCode":"54","country":"FR","distanceKm":27.6},{"name":"Fleury","slug":"fleury","population":1276,"postalCode":"57420","lat":49.0389,"lng":6.2029,"department":"Moselle","departmentCode":"57","country":"FR","distanceKm":27.7},{"name":"Freistroff","slug":"freistroff","population":1000,"postalCode":"57320","lat":49.288,"lng":6.4842,"department":"Moselle","departmentCode":"57","country":"FR","distanceKm":27.7},{"name":"Volmerange-lès-Boulay","slug":"volmerange-les-boulay","population":548,"postalCode":"57220","lat":49.1705,"lng":6.4459,"department":"Moselle","departmentCode":"57","country":"FR","distanceKm":27.7},{"name":"Corny-sur-Moselle","slug":"corny-sur-moselle","population":2168,"postalCode":"57680","lat":49.0304,"lng":6.0724,"department":"Moselle","departmentCode":"57","country":"FR","distanceKm":27.8},{"name":"Hannonville-Suzémont","slug":"hannonville-suzemont","population":262,"postalCode":"54800","lat":49.0995,"lng":5.8369,"department":"Meurthe-et-Moselle","departmentCode":"54","country":"FR","distanceKm":27.8},{"name":"Bibiche","slug":"bibiche","population":425,"postalCode":"57320","lat":49.3316,"lng":6.4786,"department":"Moselle","departmentCode":"57","country":"FR","distanceKm":27.9},{"name":"Féy","slug":"fey","population":754,"postalCode":"57420","lat":49.0286,"lng":6.1029,"department":"Moselle","departmentCode":"57","country":"FR","distanceKm":27.9},{"name":"Puxieux","slug":"puxieux","population":221,"postalCode":"54800","lat":49.0738,"lng":5.8836,"department":"Meurthe-et-Moselle","departmentCode":"54","country":"FR","distanceKm":27.9},{"name":"Dommary-Baroncourt","slug":"dommary-baroncourt","population":753,"postalCode":"55240","lat":49.2803,"lng":5.7186,"department":"Meuse","departmentCode":"55","country":"FR","distanceKm":27.9},{"name":"Kirschnaumen","slug":"kirschnaumen","population":481,"postalCode":"57480","lat":49.4028,"lng":6.4396,"department":"Moselle","departmentCode":"57","country":"FR","distanceKm":28},{"name":"Mondorf-les-Bains","slug":"mondorf-les-bains","population":5500,"postalCode":"","lat":49.5025,"lng":6.2817,"department":"Luxembourg","departmentCode":"LU","country":"LU","distanceKm":28},{"name":"Roupeldange","slug":"roupeldange","population":326,"postalCode":"57220","lat":49.2085,"lng":6.4756,"department":"Moselle","departmentCode":"57","country":"FR","distanceKm":28.2},{"name":"Mécleuves","slug":"mecleuves","population":1196,"postalCode":"57245","lat":49.0531,"lng":6.279,"department":"Moselle","departmentCode":"57","country":"FR","distanceKm":28.3},{"name":"Bettange","slug":"bettange","population":242,"postalCode":"57220","lat":49.2397,"lng":6.49,"department":"Moselle","departmentCode":"57","country":"FR","distanceKm":28.4},{"name":"Coin-lès-Cuvry","slug":"coin-les-cuvry","population":824,"postalCode":"57420","lat":49.0244,"lng":6.1374,"department":"Moselle","departmentCode":"57","country":"FR","distanceKm":28.5},{"name":"Kirsch-lès-Sierck","slug":"kirsch-les-sierck","population":328,"postalCode":"57480","lat":49.4377,"lng":6.4122,"department":"Moselle","departmentCode":"57","country":"FR","distanceKm":28.5},{"name":"Pange","slug":"pange","population":869,"postalCode":"57530","lat":49.0829,"lng":6.3542,"department":"Moselle","departmentCode":"57","country":"FR","distanceKm":28.5},{"name":"Roeser","slug":"roeser","population":6500,"postalCode":"","lat":49.5356,"lng":6.1281,"department":"Luxembourg","departmentCode":"LU","country":"LU","distanceKm":28.5},{"name":"Bazailles","slug":"bazailles","population":151,"postalCode":"54620","lat":49.4124,"lng":5.7653,"department":"Meurthe-et-Moselle","departmentCode":"54","country":"FR","distanceKm":28.6},{"name":"Éblange","slug":"eblange","population":360,"postalCode":"57220","lat":49.2211,"lng":6.4885,"department":"Moselle","departmentCode":"57","country":"FR","distanceKm":28.7},{"name":"Villers-la-Montagne","slug":"villers-la-montagne","population":1570,"postalCode":"54920","lat":49.4667,"lng":5.8294,"department":"Meurthe-et-Moselle","departmentCode":"54","country":"FR","distanceKm":28.7},{"name":"Apach","slug":"apach","population":1072,"postalCode":"57480","lat":49.4606,"lng":6.3878,"department":"Moselle","departmentCode":"57","country":"FR","distanceKm":28.8},{"name":"Allamont","slug":"allamont","population":156,"postalCode":"54800","lat":49.1266,"lng":5.7815,"department":"Meurthe-et-Moselle","departmentCode":"54","country":"FR","distanceKm":28.9},{"name":"Chambley-Bussières","slug":"chambley-bussieres","population":729,"postalCode":"54890","lat":49.0516,"lng":5.9136,"department":"Meurthe-et-Moselle","departmentCode":"54","country":"FR","distanceKm":28.9},{"name":"Courcelles-sur-Nied","slug":"courcelles-sur-nied","population":1194,"postalCode":"57530","lat":49.0571,"lng":6.3102,"department":"Moselle","departmentCode":"57","country":"FR","distanceKm":29},{"name":"Saint-Jean-lès-Buzy","slug":"saint-jean-les-buzy","population":368,"postalCode":"55400","lat":49.1703,"lng":5.7408,"department":"Meuse","departmentCode":"55","country":"FR","distanceKm":29},{"name":"Saint-Supplet","slug":"saint-supplet","population":150,"postalCode":"54620","lat":49.3768,"lng":5.7303,"department":"Meurthe-et-Moselle","departmentCode":"54","country":"FR","distanceKm":29.1},{"name":"Vandelainville","slug":"vandelainville","population":144,"postalCode":"54890","lat":49.0302,"lng":5.9821,"department":"Meurthe-et-Moselle","departmentCode":"54","country":"FR","distanceKm":29.1},{"name":"Holling","slug":"holling","population":444,"postalCode":"57220","lat":49.259,"lng":6.5047,"department":"Moselle","departmentCode":"57","country":"FR","distanceKm":29.3},{"name":"Pournoy-la-Chétive","slug":"pournoy-la-chetive","population":610,"postalCode":"57420","lat":49.0181,"lng":6.1555,"department":"Moselle","departmentCode":"57","country":"FR","distanceKm":29.3},{"name":"Foetz","slug":"foetz","population":2000,"postalCode":"","lat":49.5356,"lng":6.0042,"department":"Luxembourg","departmentCode":"LU","country":"LU","distanceKm":29.3},{"name":"Lanhères","slug":"lanheres","population":54,"postalCode":"55400","lat":49.21,"lng":5.7117,"department":"Meuse","departmentCode":"55","country":"FR","distanceKm":29.4},{"name":"Orny","slug":"orny","population":448,"postalCode":"57420","lat":49.0309,"lng":6.2508,"department":"Moselle","departmentCode":"57","country":"FR","distanceKm":29.7},{"name":"Rémelfang","slug":"remelfang","population":147,"postalCode":"57320","lat":49.2692,"lng":6.5125,"department":"Moselle","departmentCode":"57","country":"FR","distanceKm":29.7},{"name":"Arnaville","slug":"arnaville","population":556,"postalCode":"54530","lat":49.0176,"lng":6.0251,"department":"Meurthe-et-Moselle","departmentCode":"54","country":"FR","distanceKm":29.7},{"name":"Domremy-la-Canne","slug":"domremy-la-canne","population":27,"postalCode":"55240","lat":49.2973,"lng":5.6945,"department":"Meuse","departmentCode":"55","country":"FR","distanceKm":29.7},{"name":"Waldweistroff","slug":"waldweistroff","population":522,"postalCode":"57320","lat":49.357,"lng":6.4965,"department":"Moselle","departmentCode":"57","country":"FR","distanceKm":29.8},{"name":"Rouvres-en-Woëvre","slug":"rouvres-en-woevre","population":598,"postalCode":"55400","lat":49.2232,"lng":5.7012,"department":"Meuse","departmentCode":"55","country":"FR","distanceKm":29.8},{"name":"Halstroff","slug":"halstroff","population":288,"postalCode":"57480","lat":49.3865,"lng":6.4814,"department":"Moselle","departmentCode":"57","country":"FR","distanceKm":29.9},{"name":"Boismont","slug":"boismont","population":410,"postalCode":"54620","lat":49.4113,"lng":5.7395,"department":"Meurthe-et-Moselle","departmentCode":"54","country":"FR","distanceKm":30.1},{"name":"Sponville","slug":"sponville","population":108,"postalCode":"54800","lat":49.0737,"lng":5.8346,"department":"Meurthe-et-Moselle","departmentCode":"54","country":"FR","distanceKm":30.1},{"name":"Éton","slug":"eton","population":195,"postalCode":"55240","lat":49.2644,"lng":5.6882,"department":"Meuse","departmentCode":"55","country":"FR","distanceKm":30.1},{"name":"Coin-sur-Seille","slug":"coin-sur-seille","population":338,"postalCode":"57420","lat":49.01,"lng":6.1516,"department":"Moselle","departmentCode":"57","country":"FR","distanceKm":30.2},{"name":"Bayonville-sur-Mad","slug":"bayonville-sur-mad","population":331,"postalCode":"54890","lat":49.0168,"lng":5.9972,"department":"Meurthe-et-Moselle","departmentCode":"54","country":"FR","distanceKm":30.2},{"name":"Hussigny-Godbrange","slug":"hussigny-godbrange","population":3912,"postalCode":"54590","lat":49.4984,"lng":5.855,"department":"Meurthe-et-Moselle","departmentCode":"54","country":"FR","distanceKm":30.2},{"name":"Latour-en-Woëvre","slug":"latour-en-woevre","population":84,"postalCode":"55160","lat":49.092,"lng":5.8016,"department":"Meuse","departmentCode":"55","country":"FR","distanceKm":30.2},{"name":"Maizeroy","slug":"maizeroy","population":410,"postalCode":"57530","lat":49.083,"lng":6.3912,"department":"Moselle","departmentCode":"57","country":"FR","distanceKm":30.3},{"name":"Pournoy-la-Grasse","slug":"pournoy-la-grasse","population":767,"postalCode":"57420","lat":49.0153,"lng":6.2024,"department":"Moselle","departmentCode":"57","country":"FR","distanceKm":30.3},{"name":"Valmunster","slug":"valmunster","population":88,"postalCode":"57220","lat":49.2485,"lng":6.5175,"department":"Moselle","departmentCode":"57","country":"FR","distanceKm":30.3},{"name":"Vaudreching","slug":"vaudreching","population":499,"postalCode":"57320","lat":49.2754,"lng":6.5208,"department":"Moselle","departmentCode":"57","country":"FR","distanceKm":30.3},{"name":"Laix","slug":"laix","population":211,"postalCode":"54720","lat":49.4498,"lng":5.7756,"department":"Meurthe-et-Moselle","departmentCode":"54","country":"FR","distanceKm":30.3},{"name":"Mondercange","slug":"mondercange","population":9000,"postalCode":"","lat":49.5431,"lng":5.9931,"department":"Luxembourg","departmentCode":"LU","country":"LU","distanceKm":30.3},{"name":"Marieulles","slug":"marieulles","population":700,"postalCode":"57420","lat":49.0065,"lng":6.1115,"department":"Moselle","departmentCode":"57","country":"FR","distanceKm":30.4},{"name":"Merschweiller","slug":"merschweiller","population":290,"postalCode":"57480","lat":49.462,"lng":6.4148,"department":"Moselle","departmentCode":"57","country":"FR","distanceKm":30.4},{"name":"Spincourt","slug":"spincourt","population":823,"postalCode":"55230","lat":49.3359,"lng":5.6925,"department":"Meuse","departmentCode":"55","country":"FR","distanceKm":30.4},{"name":"Sanry-sur-Nied","slug":"sanry-sur-nied","population":426,"postalCode":"57530","lat":49.0535,"lng":6.3419,"department":"Moselle","departmentCode":"57","country":"FR","distanceKm":30.6},{"name":"Buzy-Darmont","slug":"buzy-darmont","population":520,"postalCode":"55400","lat":49.1711,"lng":5.7153,"department":"Meuse","departmentCode":"55","country":"FR","distanceKm":30.6},{"name":"Xonville","slug":"xonville","population":108,"postalCode":"54800","lat":49.0559,"lng":5.8556,"department":"Meurthe-et-Moselle","departmentCode":"54","country":"FR","distanceKm":30.7},{"name":"Onville","slug":"onville","population":501,"postalCode":"54890","lat":49.0181,"lng":5.9654,"department":"Meurthe-et-Moselle","departmentCode":"54","country":"FR","distanceKm":30.8},{"name":"Boulay-Moselle","slug":"boulay-moselle","population":5434,"postalCode":"57220","lat":49.1749,"lng":6.4965,"department":"Moselle","departmentCode":"57","country":"FR","distanceKm":30.9},{"name":"Filstroff","slug":"filstroff","population":778,"postalCode":"57320","lat":49.3252,"lng":6.5238,"department":"Moselle","departmentCode":"57","country":"FR","distanceKm":30.9},{"name":"Verny","slug":"verny","population":2056,"postalCode":"57420","lat":49.0098,"lng":6.2022,"department":"Moselle","departmentCode":"57","country":"FR","distanceKm":30.9},{"name":"Baslieux","slug":"baslieux","population":528,"postalCode":"54620","lat":49.4406,"lng":5.7545,"department":"Meurthe-et-Moselle","departmentCode":"54","country":"FR","distanceKm":30.9},{"name":"Varize-Vaudoncourt","slug":"varize-vaudoncourt","population":508,"postalCode":"57220","lat":49.1239,"lng":6.4573,"department":"Moselle","departmentCode":"57","country":"FR","distanceKm":31},{"name":"Villers-sous-Pareid","slug":"villers-sous-pareid","population":77,"postalCode":"55160","lat":49.127,"lng":5.7456,"department":"Meuse","departmentCode":"55","country":"FR","distanceKm":31},{"name":"Helstroff","slug":"helstroff","population":481,"postalCode":"57220","lat":49.1549,"lng":6.4857,"department":"Moselle","departmentCode":"57","country":"FR","distanceKm":31.1},{"name":"Rémeling","slug":"remeling","population":329,"postalCode":"57480","lat":49.4108,"lng":6.4819,"department":"Moselle","departmentCode":"57","country":"FR","distanceKm":31.1},{"name":"Sorbey","slug":"sorbey","population":387,"postalCode":"57580","lat":49.0375,"lng":6.3159,"department":"Moselle","departmentCode":"57","country":"FR","distanceKm":31.1},{"name":"Parfondrupt","slug":"parfondrupt","population":40,"postalCode":"55400","lat":49.1491,"lng":5.7236,"department":"Meuse","departmentCode":"55","country":"FR","distanceKm":31.1},{"name":"Differdange","slug":"differdange","population":27000,"postalCode":"","lat":49.5231,"lng":5.8917,"department":"Luxembourg","departmentCode":"LU","country":"LU","distanceKm":31.1},{"name":"Leudelange","slug":"leudelange","population":3500,"postalCode":"","lat":49.5581,"lng":6.0664,"department":"Luxembourg","departmentCode":"LU","country":"LU","distanceKm":31.1},{"name":"Han-devant-Pierrepont","slug":"han-devant-pierrepont","population":144,"postalCode":"54620","lat":49.3966,"lng":5.7114,"department":"Meurthe-et-Moselle","departmentCode":"54","country":"FR","distanceKm":31.2},{"name":"Manderen-Ritzing","slug":"manderen-ritzing","population":613,"postalCode":"57480","lat":49.4451,"lng":6.453,"department":"Moselle","departmentCode":"57","country":"FR","distanceKm":31.3},{"name":"Ottonville","slug":"ottonville","population":464,"postalCode":"57220","lat":49.2188,"lng":6.5234,"department":"Moselle","departmentCode":"57","country":"FR","distanceKm":31.3},{"name":"Chérisey","slug":"cherisey","population":280,"postalCode":"57420","lat":49.0109,"lng":6.2494,"department":"Moselle","departmentCode":"57","country":"FR","distanceKm":31.7},{"name":"Gouraincourt","slug":"gouraincourt","population":73,"postalCode":"55230","lat":49.2989,"lng":5.6667,"department":"Meuse","departmentCode":"55","country":"FR","distanceKm":31.7},{"name":"Sanem","slug":"sanem","population":15000,"postalCode":"","lat":49.5456,"lng":5.9453,"department":"Luxembourg","departmentCode":"LU","country":"LU","distanceKm":31.7},{"name":"Bannay","slug":"bannay","population":78,"postalCode":"57220","lat":49.1195,"lng":6.4659,"department":"Moselle","departmentCode":"57","country":"FR","distanceKm":31.8},{"name":"Bouzonville","slug":"bouzonville","population":3721,"postalCode":"57320","lat":49.297,"lng":6.5399,"department":"Moselle","departmentCode":"57","country":"FR","distanceKm":31.8},{"name":"Grindorff-Bizing","slug":"grindorff-bizing","population":314,"postalCode":"57480","lat":49.383,"lng":6.5128,"department":"Moselle","departmentCode":"57","country":"FR","distanceKm":31.9},{"name":"Bazoncourt","slug":"bazoncourt","population":526,"postalCode":"57530","lat":49.0575,"lng":6.3826,"department":"Moselle","departmentCode":"57","country":"FR","distanceKm":32},{"name":"Saint-Pierrevillers","slug":"saint-pierrevillers","population":149,"postalCode":"55230","lat":49.3736,"lng":5.6851,"department":"Meuse","departmentCode":"55","country":"FR","distanceKm":32},{"name":"Arry","slug":"arry","population":517,"postalCode":"57680","lat":48.993,"lng":6.0553,"department":"Moselle","departmentCode":"57","country":"FR","distanceKm":32.1},{"name":"Velving","slug":"velving","population":199,"postalCode":"57220","lat":49.2407,"lng":6.5408,"department":"Moselle","departmentCode":"57","country":"FR","distanceKm":32.1},{"name":"Labeuville","slug":"labeuville","population":139,"postalCode":"55160","lat":49.0881,"lng":5.7728,"department":"Meuse","departmentCode":"55","country":"FR","distanceKm":32.1},{"name":"Pommérieux","slug":"pommerieux","population":755,"postalCode":"57420","lat":48.9952,"lng":6.1819,"department":"Moselle","departmentCode":"57","country":"FR","distanceKm":32.2},{"name":"Haucourt-Moulaine","slug":"haucourt-moulaine","population":3495,"postalCode":"54860","lat":49.4984,"lng":5.8102,"department":"Meurthe-et-Moselle","departmentCode":"54","country":"FR","distanceKm":32.2},{"name":"Hesperange","slug":"hesperange","population":14000,"postalCode":"","lat":49.5672,"lng":6.1617,"department":"Luxembourg","departmentCode":"LU","country":"LU","distanceKm":32.3},{"name":"Colmen","slug":"colmen","population":207,"postalCode":"57320","lat":49.3518,"lng":6.536,"department":"Moselle","departmentCode":"57","country":"FR","distanceKm":32.4},{"name":"Boinville-en-Woëvre","slug":"boinville-en-woevre","population":75,"postalCode":"55400","lat":49.1881,"lng":5.679,"department":"Meuse","departmentCode":"55","country":"FR","distanceKm":32.4},{"name":"Moulotte","slug":"moulotte","population":87,"postalCode":"55160","lat":49.1009,"lng":5.7505,"department":"Meuse","departmentCode":"55","country":"FR","distanceKm":32.4},{"name":"Saint-Julien-lès-Gorze","slug":"saint-julien-les-gorze","population":162,"postalCode":"54470","lat":49.0183,"lng":5.9037,"department":"Meurthe-et-Moselle","departmentCode":"54","country":"FR","distanceKm":32.5},{"name":"Pontoy","slug":"pontoy","population":613,"postalCode":"57420","lat":49.0147,"lng":6.2955,"department":"Moselle","departmentCode":"57","country":"FR","distanceKm":32.6},{"name":"Chenières","slug":"chenieres","population":596,"postalCode":"54720","lat":49.4746,"lng":5.7662,"department":"Meurthe-et-Moselle","departmentCode":"54","country":"FR","distanceKm":32.6},{"name":"Alzing","slug":"alzing","population":405,"postalCode":"57320","lat":49.2745,"lng":6.5531,"department":"Moselle","departmentCode":"57","country":"FR","distanceKm":32.7},{"name":"Sillegny","slug":"sillegny","population":657,"postalCode":"57420","lat":48.9865,"lng":6.1435,"department":"Moselle","departmentCode":"57","country":"FR","distanceKm":32.7},{"name":"Hagéville","slug":"hageville","population":111,"postalCode":"54470","lat":49.0323,"lng":5.8602,"department":"Meurthe-et-Moselle","departmentCode":"54","country":"FR","distanceKm":32.7},{"name":"Pierrepont","slug":"pierrepont","population":824,"postalCode":"54620","lat":49.42,"lng":5.7063,"department":"Meurthe-et-Moselle","departmentCode":"54","country":"FR","distanceKm":32.7},{"name":"Waville","slug":"waville","population":433,"postalCode":"54890","lat":49.0069,"lng":5.9363,"department":"Meurthe-et-Moselle","departmentCode":"54","country":"FR","distanceKm":32.7},{"name":"Flastroff","slug":"flastroff","population":373,"postalCode":"57320","lat":49.3743,"lng":6.5309,"department":"Moselle","departmentCode":"57","country":"FR","distanceKm":32.8},{"name":"Nouillonpont","slug":"nouillonpont","population":243,"postalCode":"55230","lat":49.3571,"lng":5.6658,"department":"Meuse","departmentCode":"55","country":"FR","distanceKm":32.8},{"name":"Aube","slug":"aube","population":268,"postalCode":"57580","lat":49.0264,"lng":6.3369,"department":"Moselle","departmentCode":"57","country":"FR","distanceKm":32.9},{"name":"Bionville-sur-Nied","slug":"bionville-sur-nied","population":393,"postalCode":"57220","lat":49.1135,"lng":6.4768,"department":"Moselle","departmentCode":"57","country":"FR","distanceKm":32.9},{"name":"Lorry-Mardigny","slug":"lorry-mardigny","population":683,"postalCode":"57420","lat":48.9837,"lng":6.0973,"department":"Moselle","departmentCode":"57","country":"FR","distanceKm":32.9},{"name":"Brettnach","slug":"brettnach","population":429,"postalCode":"57320","lat":49.2582,"lng":6.5594,"department":"Moselle","departmentCode":"57","country":"FR","distanceKm":33.2},{"name":"Servigny-lès-Raville","slug":"servigny-les-raville","population":476,"postalCode":"57530","lat":49.0806,"lng":6.4434,"department":"Moselle","departmentCode":"57","country":"FR","distanceKm":33.2},{"name":"Pagny-sur-Moselle","slug":"pagny-sur-moselle","population":3919,"postalCode":"54530","lat":48.9879,"lng":6.0057,"department":"Meurthe-et-Moselle","departmentCode":"54","country":"FR","distanceKm":33.2},{"name":"Doncourt-lès-Longuyon","slug":"doncourt-les-longuyon","population":297,"postalCode":"54620","lat":49.4401,"lng":5.7137,"department":"Meurthe-et-Moselle","departmentCode":"54","country":"FR","distanceKm":33.3},{"name":"Amel-sur-l'Étang","slug":"amel-sur-letang","population":153,"postalCode":"55230","lat":49.2569,"lng":5.645,"department":"Meuse","departmentCode":"55","country":"FR","distanceKm":33.3},{"name":"Lemud","slug":"lemud","population":516,"postalCode":"57580","lat":49.0336,"lng":6.3655,"department":"Moselle","departmentCode":"57","country":"FR","distanceKm":33.4},{"name":"Pareid","slug":"pareid","population":110,"postalCode":"55160","lat":49.1274,"lng":5.7073,"department":"Meuse","departmentCode":"55","country":"FR","distanceKm":33.4},{"name":"Vaudoncourt","slug":"vaudoncourt","population":79,"postalCode":"55230","lat":49.3174,"lng":5.6444,"department":"Meuse","departmentCode":"55","country":"FR","distanceKm":33.5},{"name":"Denting","slug":"denting","population":268,"postalCode":"57220","lat":49.1805,"lng":6.5406,"department":"Moselle","departmentCode":"57","country":"FR","distanceKm":33.6},{"name":"Mexy","slug":"mexy","population":2300,"postalCode":"54135","lat":49.5025,"lng":5.7877,"department":"Meurthe-et-Moselle","departmentCode":"54","country":"FR","distanceKm":33.7},{"name":"Villecey-sur-Mad","slug":"villecey-sur-mad","population":344,"postalCode":"54890","lat":48.9942,"lng":5.9475,"department":"Meurthe-et-Moselle","departmentCode":"54","country":"FR","distanceKm":33.7},{"name":"Jonville-en-Woëvre","slug":"jonville-en-woevre","population":143,"postalCode":"55160","lat":49.0646,"lng":5.7767,"department":"Meuse","departmentCode":"55","country":"FR","distanceKm":33.7},{"name":"Goin","slug":"goin","population":356,"postalCode":"57420","lat":48.9867,"lng":6.2243,"department":"Moselle","departmentCode":"57","country":"FR","distanceKm":33.8},{"name":"Waldwisse","slug":"waldwisse","population":804,"postalCode":"57480","lat":49.4136,"lng":6.522,"department":"Moselle","departmentCode":"57","country":"FR","distanceKm":33.8},{"name":"Launstroff","slug":"launstroff","population":238,"postalCode":"57480","lat":49.4363,"lng":6.505,"department":"Moselle","departmentCode":"57","country":"FR","distanceKm":33.9},{"name":"Brouck","slug":"brouck","population":80,"postalCode":"57220","lat":49.1276,"lng":6.5086,"department":"Moselle","departmentCode":"57","country":"FR","distanceKm":34},{"name":"Liéhon","slug":"liehon","population":130,"postalCode":"57420","lat":48.9924,"lng":6.262,"department":"Moselle","departmentCode":"57","country":"FR","distanceKm":34},{"name":"Momerstroff","slug":"momerstroff","population":298,"postalCode":"57220","lat":49.1557,"lng":6.5313,"department":"Moselle","departmentCode":"57","country":"FR","distanceKm":34},{"name":"Neunkirchen-lès-Bouzonville","slug":"neunkirchen-les-bouzonville","population":325,"postalCode":"57320","lat":49.3497,"lng":6.5614,"department":"Moselle","departmentCode":"57","country":"FR","distanceKm":34.1},{"name":"Saulnes","slug":"saulnes","population":2259,"postalCode":"54650","lat":49.5285,"lng":5.8252,"department":"Meurthe-et-Moselle","departmentCode":"54","country":"FR","distanceKm":34.2},{"name":"Harville","slug":"harville","population":112,"postalCode":"55160","lat":49.0945,"lng":5.7273,"department":"Meuse","departmentCode":"55","country":"FR","distanceKm":34.2},{"name":"Raville","slug":"raville","population":330,"postalCode":"57530","lat":49.0892,"lng":6.4733,"department":"Moselle","departmentCode":"57","country":"FR","distanceKm":34.3},{"name":"Téterchen","slug":"teterchen","population":757,"postalCode":"57220","lat":49.2293,"lng":6.5696,"department":"Moselle","departmentCode":"57","country":"FR","distanceKm":34.3},{"name":"Kaerjeng","slug":"kaerjeng","population":8500,"postalCode":"","lat":49.5531,"lng":5.8831,"department":"Luxembourg","departmentCode":"LU","country":"LU","distanceKm":34.3},{"name":"Silly-en-Saulnois","slug":"silly-en-saulnois","population":35,"postalCode":"57420","lat":48.9916,"lng":6.2801,"department":"Moselle","departmentCode":"57","country":"FR","distanceKm":34.5},{"name":"Vittonville","slug":"vittonville","population":126,"postalCode":"54700","lat":48.9703,"lng":6.0607,"department":"Meurthe-et-Moselle","departmentCode":"54","country":"FR","distanceKm":34.5},{"name":"Gussainville","slug":"gussainville","population":35,"postalCode":"55400","lat":49.1668,"lng":5.6609,"department":"Meuse","departmentCode":"55","country":"FR","distanceKm":34.5},{"name":"Beux","slug":"beux","population":296,"postalCode":"57580","lat":49.0008,"lng":6.3126,"department":"Moselle","departmentCode":"57","country":"FR","distanceKm":34.6},{"name":"Guerstling","slug":"guerstling","population":360,"postalCode":"57320","lat":49.3227,"lng":6.576,"department":"Moselle","departmentCode":"57","country":"FR","distanceKm":34.6},{"name":"Cutry","slug":"cutry","population":1032,"postalCode":"54720","lat":49.4812,"lng":5.7383,"department":"Meurthe-et-Moselle","departmentCode":"54","country":"FR","distanceKm":34.6},{"name":"Dommartin-la-Chaussée","slug":"dommartin-la-chaussee","population":29,"postalCode":"54470","lat":49.0095,"lng":5.8677,"department":"Meurthe-et-Moselle","departmentCode":"54","country":"FR","distanceKm":34.6},{"name":"Petange","slug":"petange","population":18500,"postalCode":"","lat":49.5572,"lng":5.8822,"department":"Luxembourg","departmentCode":"LU","country":"LU","distanceKm":34.7},{"name":"Herserange","slug":"herserange","population":4170,"postalCode":"54440","lat":49.5187,"lng":5.793,"department":"Meurthe-et-Moselle","departmentCode":"54","country":"FR","distanceKm":34.8},{"name":"Hennemont","slug":"hennemont","population":111,"postalCode":"55160","lat":49.143,"lng":5.6723,"department":"Meuse","departmentCode":"55","country":"FR","distanceKm":34.8},{"name":"Warcq","slug":"warcq","population":181,"postalCode":"55400","lat":49.19,"lng":5.6439,"department":"Meuse","departmentCode":"55","country":"FR","distanceKm":34.8},{"name":"Étain","slug":"etain","population":3375,"postalCode":"55400","lat":49.2204,"lng":5.6311,"department":"Meuse","departmentCode":"55","country":"FR","distanceKm":34.9},{"name":"Ancerville","slug":"ancerville","population":300,"postalCode":"57580","lat":49.0318,"lng":6.3988,"department":"Moselle","departmentCode":"57","country":"FR","distanceKm":35},{"name":"Oberdorff","slug":"oberdorff","population":329,"postalCode":"57320","lat":49.2761,"lng":6.5848,"department":"Moselle","departmentCode":"57","country":"FR","distanceKm":35},{"name":"Senon","slug":"senon","population":300,"postalCode":"55230","lat":49.2805,"lng":5.62,"department":"Meuse","departmentCode":"55","country":"FR","distanceKm":35},{"name":"Réhon","slug":"rehon","population":3863,"postalCode":"54430","lat":49.5007,"lng":5.7565,"department":"Meurthe-et-Moselle","departmentCode":"54","country":"FR","distanceKm":35.1},{"name":"Villers-Stoncourt","slug":"villers-stoncourt","population":225,"postalCode":"57530","lat":49.0572,"lng":6.4479,"department":"Moselle","departmentCode":"57","country":"FR","distanceKm":35.2},{"name":"Maizeray","slug":"maizeray","population":26,"postalCode":"55160","lat":49.1037,"lng":5.7009,"department":"Meuse","departmentCode":"55","country":"FR","distanceKm":35.2},{"name":"Lachaussée","slug":"lachaussee","population":271,"postalCode":"55210","lat":49.0322,"lng":5.7984,"department":"Meuse","departmentCode":"55","country":"FR","distanceKm":35.3},{"name":"Prény","slug":"preny","population":374,"postalCode":"54530","lat":48.9741,"lng":5.9656,"department":"Meurthe-et-Moselle","departmentCode":"54","country":"FR","distanceKm":35.4},{"name":"Ugny","slug":"ugny","population":689,"postalCode":"54870","lat":49.4653,"lng":5.7064,"department":"Meurthe-et-Moselle","departmentCode":"54","country":"FR","distanceKm":35.4},{"name":"Muzeray","slug":"muzeray","population":133,"postalCode":"55230","lat":49.3385,"lng":5.6228,"department":"Meuse","departmentCode":"55","country":"FR","distanceKm":35.4},{"name":"Schwerdorff","slug":"schwerdorff","population":472,"postalCode":"57320","lat":49.3722,"lng":6.5721,"department":"Moselle","departmentCode":"57","country":"FR","distanceKm":35.5},{"name":"Tromborn","slug":"tromborn","population":339,"postalCode":"57320","lat":49.2607,"lng":6.5943,"department":"Moselle","departmentCode":"57","country":"FR","distanceKm":35.7},{"name":"Beuveille","slug":"beuveille","population":783,"postalCode":"54620","lat":49.4356,"lng":5.6722,"department":"Meurthe-et-Moselle","departmentCode":"54","country":"FR","distanceKm":35.7},{"name":"Louvigny","slug":"louvigny","population":880,"postalCode":"57420","lat":48.9618,"lng":6.178,"department":"Moselle","departmentCode":"57","country":"FR","distanceKm":35.8},{"name":"Longlaville","slug":"longlaville","population":2377,"postalCode":"54810","lat":49.5347,"lng":5.8002,"department":"Meurthe-et-Moselle","departmentCode":"54","country":"FR","distanceKm":35.8},{"name":"Chanville","slug":"chanville","population":147,"postalCode":"57580","lat":49.0413,"lng":6.4365,"department":"Moselle","departmentCode":"57","country":"FR","distanceKm":35.9},{"name":"Cheminot","slug":"cheminot","population":833,"postalCode":"57420","lat":48.9573,"lng":6.1316,"department":"Moselle","departmentCode":"57","country":"FR","distanceKm":35.9},{"name":"Marange-Zondrange","slug":"marange-zondrange","population":372,"postalCode":"57690","lat":49.1195,"lng":6.5321,"department":"Moselle","departmentCode":"57","country":"FR","distanceKm":35.9},{"name":"Niedervisse","slug":"niedervisse","population":279,"postalCode":"57220","lat":49.1616,"lng":6.5629,"department":"Moselle","departmentCode":"57","country":"FR","distanceKm":35.9},{"name":"Pagny-lès-Goin","slug":"pagny-les-goin","population":225,"postalCode":"57420","lat":48.9664,"lng":6.2198,"department":"Moselle","departmentCode":"57","country":"FR","distanceKm":35.9},{"name":"Rembercourt-sur-Mad","slug":"rembercourt-sur-mad","population":164,"postalCode":"54470","lat":48.9854,"lng":5.901,"department":"Meurthe-et-Moselle","departmentCode":"54","country":"FR","distanceKm":35.9},{"name":"Buchy","slug":"buchy","population":101,"postalCode":"57420","lat":48.9794,"lng":6.2873,"department":"Moselle","departmentCode":"57","country":"FR","distanceKm":36},{"name":"Narbéfontaine","slug":"narbefontaine","population":115,"postalCode":"57220","lat":49.134,"lng":6.5461,"department":"Moselle","departmentCode":"57","country":"FR","distanceKm":36},{"name":"Bouxières-sous-Froidmont","slug":"bouxieres-sous-froidmont","population":430,"postalCode":"54700","lat":48.9556,"lng":6.1015,"department":"Meurthe-et-Moselle","departmentCode":"54","country":"FR","distanceKm":36},{"name":"Champey-sur-Moselle","slug":"champey-sur-moselle","population":315,"postalCode":"54700","lat":48.9568,"lng":6.0628,"department":"Meurthe-et-Moselle","departmentCode":"54","country":"FR","distanceKm":36},{"name":"Arrancy-sur-Crusnes","slug":"arrancy-sur-crusnes","population":466,"postalCode":"55230","lat":49.4127,"lng":5.6499,"department":"Meuse","departmentCode":"55","country":"FR","distanceKm":36},{"name":"Château-Rouge","slug":"chateau-rouge","population":296,"postalCode":"57320","lat":49.2854,"lng":6.6,"department":"Moselle","departmentCode":"57","country":"FR","distanceKm":36.1},{"name":"Charey","slug":"charey","population":88,"postalCode":"54470","lat":48.9959,"lng":5.8605,"department":"Meurthe-et-Moselle","departmentCode":"54","country":"FR","distanceKm":36.1},{"name":"Foameix-Ornel","slug":"foameix-ornel","population":229,"postalCode":"55400","lat":49.2358,"lng":5.61,"department":"Meuse","departmentCode":"55","country":"FR","distanceKm":36.1},{"name":"Longwy","slug":"longwy","population":15679,"postalCode":"54400","lat":49.5217,"lng":5.7672,"department":"Meurthe-et-Moselle","departmentCode":"54","country":"FR","distanceKm":36.2},{"name":"Rouvrois-sur-Othain","slug":"rouvrois-sur-othain","population":199,"postalCode":"55230","lat":49.3883,"lng":5.6319,"department":"Meuse","departmentCode":"55","country":"FR","distanceKm":36.2},{"name":"Coume","slug":"coume","population":593,"postalCode":"57220","lat":49.1967,"lng":6.5857,"department":"Moselle","departmentCode":"57","country":"FR","distanceKm":36.3},{"name":"Fouligny","slug":"fouligny","population":192,"postalCode":"57220","lat":49.0953,"lng":6.5154,"department":"Moselle","departmentCode":"57","country":"FR","distanceKm":36.3},{"name":"Heining-lès-Bouzonville","slug":"heining-les-bouzonville","population":487,"postalCode":"57320","lat":49.3061,"lng":6.6012,"department":"Moselle","departmentCode":"57","country":"FR","distanceKm":36.3},{"name":"Vigny","slug":"vigny","population":389,"postalCode":"57420","lat":48.9688,"lng":6.2534,"department":"Moselle","departmentCode":"57","country":"FR","distanceKm":36.3},{"name":"Vandières","slug":"vandieres","population":934,"postalCode":"54121","lat":48.959,"lng":6.0094,"department":"Meurthe-et-Moselle","departmentCode":"54","country":"FR","distanceKm":36.3},{"name":"Duzey","slug":"duzey","population":46,"postalCode":"55230","lat":49.3597,"lng":5.6177,"department":"Meuse","departmentCode":"55","country":"FR","distanceKm":36.3},{"name":"Vœlfling-lès-Bouzonville","slug":"v-lfling-les-bouzonville","population":170,"postalCode":"57320","lat":49.2929,"lng":6.604,"department":"Moselle","departmentCode":"57","country":"FR","distanceKm":36.4},{"name":"Dampvitoux","slug":"dampvitoux","population":55,"postalCode":"54470","lat":49.0037,"lng":5.8333,"department":"Meurthe-et-Moselle","departmentCode":"54","country":"FR","distanceKm":36.4},{"name":"Pintheville","slug":"pintheville","population":101,"postalCode":"55160","lat":49.1162,"lng":5.6685,"department":"Meuse","departmentCode":"55","country":"FR","distanceKm":36.4},{"name":"Voimhaut","slug":"voimhaut","population":247,"postalCode":"57580","lat":49.0255,"lng":6.422,"department":"Moselle","departmentCode":"57","country":"FR","distanceKm":36.6},{"name":"Lexy","slug":"lexy","population":3904,"postalCode":"54720","lat":49.5019,"lng":5.7302,"department":"Meurthe-et-Moselle","departmentCode":"54","country":"FR","distanceKm":36.6},{"name":"Rémilly","slug":"remilly","population":2070,"postalCode":"57580","lat":49.0063,"lng":6.3856,"department":"Moselle","departmentCode":"57","country":"FR","distanceKm":36.7},{"name":"Hallering","slug":"hallering","population":99,"postalCode":"57690","lat":49.1245,"lng":6.5527,"department":"Moselle","departmentCode":"57","country":"FR","distanceKm":37},{"name":"Hargarten-aux-Mines","slug":"hargarten-aux-mines","population":1073,"postalCode":"57550","lat":49.2205,"lng":6.6044,"department":"Moselle","departmentCode":"57","country":"FR","distanceKm":37},{"name":"Doncourt-aux-Templiers","slug":"doncourt-aux-templiers","population":74,"postalCode":"55160","lat":49.0601,"lng":5.7206,"department":"Meuse","departmentCode":"55","country":"FR","distanceKm":37},{"name":"Saint-Hilaire-en-Woëvre","slug":"saint-hilaire-en-woevre","population":179,"postalCode":"55160","lat":49.075,"lng":5.7022,"department":"Meuse","departmentCode":"55","country":"FR","distanceKm":37},{"name":"Luxembourg","slug":"luxembourg","population":128000,"postalCode":"","lat":49.6117,"lng":6.1319,"department":"Luxembourg","departmentCode":"LU","country":"LU","distanceKm":37},{"name":"Obervisse","slug":"obervisse","population":154,"postalCode":"57220","lat":49.1537,"lng":6.5774,"department":"Moselle","departmentCode":"57","country":"FR","distanceKm":37.2},{"name":"Solgne","slug":"solgne","population":1133,"postalCode":"57420","lat":48.9706,"lng":6.297,"department":"Moselle","departmentCode":"57","country":"FR","distanceKm":37.2},{"name":"Loison","slug":"loison","population":116,"postalCode":"55230","lat":49.3046,"lng":5.5908,"department":"Meuse","departmentCode":"55","country":"FR","distanceKm":37.2},{"name":"Braquis","slug":"braquis","population":105,"postalCode":"55400","lat":49.1563,"lng":5.6258,"department":"Meuse","departmentCode":"55","country":"FR","distanceKm":37.3},{"name":"Woël","slug":"woel","population":209,"postalCode":"55210","lat":49.0389,"lng":5.7459,"department":"Meuse","departmentCode":"55","country":"FR","distanceKm":37.3},{"name":"Dalem","slug":"dalem","population":695,"postalCode":"57550","lat":49.2405,"lng":6.6152,"department":"Moselle","departmentCode":"57","country":"FR","distanceKm":37.4},{"name":"Luppy","slug":"luppy","population":595,"postalCode":"57580","lat":48.9802,"lng":6.3361,"department":"Moselle","departmentCode":"57","country":"FR","distanceKm":37.4},{"name":"Marchéville-en-Woëvre","slug":"marcheville-en-woevre","population":69,"postalCode":"55160","lat":49.0895,"lng":5.679,"department":"Meuse","departmentCode":"55","country":"FR","distanceKm":37.4},{"name":"Mont-Saint-Martin","slug":"mont-saint-martin","population":9361,"postalCode":"54350","lat":49.5469,"lng":5.7872,"department":"Meurthe-et-Moselle","departmentCode":"54","country":"FR","distanceKm":37.5},{"name":"Riaville","slug":"riaville","population":51,"postalCode":"55160","lat":49.096,"lng":5.6671,"department":"Meuse","departmentCode":"55","country":"FR","distanceKm":37.7},{"name":"Hémilly","slug":"hemilly","population":136,"postalCode":"57690","lat":49.0525,"lng":6.4891,"department":"Moselle","departmentCode":"57","country":"FR","distanceKm":37.8},{"name":"Jaulny","slug":"jaulny","population":220,"postalCode":"54470","lat":48.9679,"lng":5.8947,"department":"Meurthe-et-Moselle","departmentCode":"54","country":"FR","distanceKm":37.8},{"name":"Cons-la-Grandville","slug":"cons-la-grandville","population":522,"postalCode":"54870","lat":49.4929,"lng":5.6934,"department":"Meurthe-et-Moselle","departmentCode":"54","country":"FR","distanceKm":37.9},{"name":"Guinglange","slug":"guinglange","population":322,"postalCode":"57690","lat":49.0686,"lng":6.5136,"department":"Moselle","departmentCode":"57","country":"FR","distanceKm":38},{"name":"Herméville-en-Woëvre","slug":"hermeville-en-woevre","population":218,"postalCode":"55400","lat":49.1768,"lng":5.6043,"department":"Meuse","departmentCode":"55","country":"FR","distanceKm":38},{"name":"Rémering","slug":"remering","population":421,"postalCode":"57550","lat":49.2599,"lng":6.6268,"department":"Moselle","departmentCode":"57","country":"FR","distanceKm":38.1},{"name":"Vittoncourt","slug":"vittoncourt","population":390,"postalCode":"57580","lat":49.0247,"lng":6.4525,"department":"Moselle","departmentCode":"57","country":"FR","distanceKm":38.1},{"name":"Villing","slug":"villing","population":511,"postalCode":"57550","lat":49.2816,"lng":6.63,"department":"Moselle","departmentCode":"57","country":"FR","distanceKm":38.2},{"name":"Montigny-sur-Chiers","slug":"montigny-sur-chiers","population":486,"postalCode":"54870","lat":49.4753,"lng":5.6672,"department":"Meurthe-et-Moselle","departmentCode":"54","country":"FR","distanceKm":38.3},{"name":"Villers-sous-Prény","slug":"villers-sous-preny","population":332,"postalCode":"54700","lat":48.9417,"lng":5.9937,"department":"Meurthe-et-Moselle","departmentCode":"54","country":"FR","distanceKm":38.4},{"name":"Bisten-en-Lorraine","slug":"bisten-en-lorraine","population":245,"postalCode":"57220","lat":49.1641,"lng":6.6022,"department":"Moselle","departmentCode":"57","country":"FR","distanceKm":38.5},{"name":"Xammes","slug":"xammes","population":174,"postalCode":"54470","lat":48.9764,"lng":5.8464,"department":"Meurthe-et-Moselle","departmentCode":"54","country":"FR","distanceKm":38.5},{"name":"Fromezey","slug":"fromezey","population":64,"postalCode":"55400","lat":49.2092,"lng":5.5827,"department":"Meuse","departmentCode":"55","country":"FR","distanceKm":38.6},{"name":"Lesménils","slug":"lesmenils","population":506,"postalCode":"54700","lat":48.9317,"lng":6.1116,"department":"Meurthe-et-Moselle","departmentCode":"54","country":"FR","distanceKm":38.7},{"name":"Saint-Jure","slug":"saint-jure","population":283,"postalCode":"57420","lat":48.9416,"lng":6.2329,"department":"Moselle","departmentCode":"57","country":"FR","distanceKm":38.8},{"name":"Secourt","slug":"secourt","population":201,"postalCode":"57420","lat":48.9487,"lng":6.2732,"department":"Moselle","departmentCode":"57","country":"FR","distanceKm":38.8},{"name":"Haute-Vigneulles","slug":"haute-vigneulles","population":438,"postalCode":"57690","lat":49.0967,"lng":6.5568,"department":"Moselle","departmentCode":"57","country":"FR","distanceKm":38.8},{"name":"Guerting","slug":"guerting","population":866,"postalCode":"57880","lat":49.1967,"lng":6.6236,"department":"Moselle","departmentCode":"57","country":"FR","distanceKm":38.9},{"name":"Zimming","slug":"zimming","population":710,"postalCode":"57690","lat":49.1296,"lng":6.5869,"department":"Moselle","departmentCode":"57","country":"FR","distanceKm":38.9},{"name":"Pillon","slug":"pillon","population":251,"postalCode":"55230","lat":49.3712,"lng":5.5848,"department":"Meuse","departmentCode":"55","country":"FR","distanceKm":38.9},{"name":"Béchy","slug":"bechy","population":615,"postalCode":"57580","lat":48.9836,"lng":6.3905,"department":"Moselle","departmentCode":"57","country":"FR","distanceKm":39},{"name":"Vilcey-sur-Trey","slug":"vilcey-sur-trey","population":145,"postalCode":"54700","lat":48.9417,"lng":5.9589,"department":"Meurthe-et-Moselle","departmentCode":"54","country":"FR","distanceKm":39},{"name":"Villers-la-Chèvre","slug":"villers-la-chevre","population":580,"postalCode":"54870","lat":49.5059,"lng":5.6907,"department":"Meurthe-et-Moselle","departmentCode":"54","country":"FR","distanceKm":39},{"name":"Ville-en-Woëvre","slug":"ville-en-woevre","population":131,"postalCode":"55160","lat":49.1399,"lng":5.6108,"department":"Meuse","departmentCode":"55","country":"FR","distanceKm":39},{"name":"Varsberg","slug":"varsberg","population":973,"postalCode":"57880","lat":49.1748,"lng":6.6174,"department":"Moselle","departmentCode":"57","country":"FR","distanceKm":39.1},{"name":"Gincrey","slug":"gincrey","population":61,"postalCode":"55400","lat":49.2616,"lng":5.5642,"department":"Meuse","departmentCode":"55","country":"FR","distanceKm":39.1},{"name":"Morgemoulin","slug":"morgemoulin","population":109,"postalCode":"55400","lat":49.2304,"lng":5.5693,"department":"Meuse","departmentCode":"55","country":"FR","distanceKm":39.1},{"name":"Adaincourt","slug":"adaincourt","population":135,"postalCode":"57580","lat":49.0064,"lng":6.4445,"department":"Moselle","departmentCode":"57","country":"FR","distanceKm":39.3},{"name":"Falck","slug":"falck","population":2482,"postalCode":"57550","lat":49.2257,"lng":6.6385,"department":"Moselle","departmentCode":"57","country":"FR","distanceKm":39.3},{"name":"Norroy-lès-Pont-à-Mousson","slug":"norroy-les-pont-a-mousson","population":1149,"postalCode":"54700","lat":48.9314,"lng":6.0104,"department":"Meurthe-et-Moselle","departmentCode":"54","country":"FR","distanceKm":39.3},{"name":"Billy-sous-Mangiennes","slug":"billy-sous-mangiennes","population":349,"postalCode":"55230","lat":49.3221,"lng":5.5651,"department":"Meuse","departmentCode":"55","country":"FR","distanceKm":39.3},{"name":"Fresnes-en-Woëvre","slug":"fresnes-en-woevre","population":668,"postalCode":"55160","lat":49.1014,"lng":5.635,"department":"Meuse","departmentCode":"55","country":"FR","distanceKm":39.4},{"name":"Cosnes-et-Romain","slug":"cosnes-et-romain","population":2802,"postalCode":"54400","lat":49.5269,"lng":5.7084,"department":"Meurthe-et-Moselle","departmentCode":"54","country":"FR","distanceKm":39.6},{"name":"Saulx-lès-Champlon","slug":"saulx-les-champlon","population":116,"postalCode":"55160","lat":49.0739,"lng":5.6573,"department":"Meuse","departmentCode":"55","country":"FR","distanceKm":39.7},{"name":"Berviller-en-Moselle","slug":"berviller-en-moselle","population":464,"postalCode":"57550","lat":49.2684,"lng":6.6514,"department":"Moselle","departmentCode":"57","country":"FR","distanceKm":39.8},{"name":"Éply","slug":"eply","population":291,"postalCode":"54610","lat":48.925,"lng":6.1789,"department":"Meurthe-et-Moselle","departmentCode":"54","country":"FR","distanceKm":39.8},{"name":"Sailly-Achâtel","slug":"sailly-achatel","population":324,"postalCode":"57420","lat":48.9438,"lng":6.2985,"department":"Moselle","departmentCode":"57","country":"FR","distanceKm":40},{"name":"Pont-à-Mousson","slug":"pont-a-mousson","population":14190,"postalCode":"54700","lat":48.9222,"lng":6.047,"department":"Meurthe-et-Moselle","departmentCode":"54","country":"FR","distanceKm":40},{"name":"Avillers-Sainte-Croix","slug":"avillers-sainte-croix","population":80,"postalCode":"55210","lat":49.0337,"lng":5.702,"department":"Meuse","departmentCode":"55","country":"FR","distanceKm":40}]